zipcode,Income per capita,Median household income,Poverty, Median age,Median home value,Median monthly owner cost,Total Population,White Population,Black Population,American Indian Population,Asian Population,Hispanic Population,Population identifying as 2+ races,Percent of transit public transport,Latitude,Longitude,City,County
93306,23580,54450,15853,31.3,211100,1541,74296,51869,1727,1208,2455,48116,5176,228,35.46595,-118.78445,Bakersfield,Kern
93660,12475,39625,1057,26.7,171700,1114,4082,2231,40,0,0,3925,142,0,36.60932,-120.16514,San Joaquin,Fresno
93110,53375,93264,1332,46.9,844300,3063,15777,12042,311,287,674,4251,702,185,34.43913,-119.7666,Santa Barbara,Santa Barbara
93212,10656,42983,3911,34.4,162100,1160,22596,13033,2708,333,177,15641,2104,21,36.01649,-119.56937,Corcoran,Kings
93001,35490,66460,4487,38.8,579000,2285,31729,27211,274,499,705,13797,1683,376,34.35321,-119.31868,Ventura,Ventura
93234,13273,31788,2996,28.2,161100,1104,7258,2845,23,490,0,6868,738,48,36.19608,-120.08477,Huron,Fresno
93307,14747,42128,24624,26.8,172500,1269,86273,56739,5803,935,1966,68928,3937,467,35.2487,-118.93253,Bakersfield,Kern
93536,32443,84674,7492,36.9,352700,1983,68575,41823,8853,751,4105,22823,7332,364,34.75267,-118.3889,Lancaster,Los Angeles
93546,36265,69702,1140,37,460800,2168,9750,8322,49,17,593,3073,389,1259,37.60573,-118.85219,Mammoth Lakes,Mono
93669,14809,,0,57.5,235800,,320,314,0,6,0,3,0,0,37.28334,-119.54297,Wishon,Madera
93701,12332,23356,4659,28.5,184600,999,10398,5690,741,232,1011,7704,642,156,36.74955,-119.78772,Fresno,Fresno
93664,63794,106071,17,66.3,564100,1656,370,326,0,0,2,51,30,0,37.05671,-119.17981,Shaver Lake,Fresno
93218,10557,26905,237,29.3,122700,1131,827,496,0,15,0,742,108,0,35.86194,-119.03822,Ducor,Tulare
93260,22064,41382,36,50,134700,1750,244,157,87,0,0,0,0,0,35.81909,-118.66116,Posey,Tulare
93612,25650,46892,6138,33.6,226900,1469,35475,22373,1122,544,2822,14741,3323,112,36.81548,-119.71076,Clovis,Fresno
93621,66547,,0,47.9,,,118,117,0,0,1,82,0,0,36.8067,-119.13602,Dunlap,Fresno
92394,24072,61270,7512,31.1,241900,1563,34836,16787,7345,320,1464,18800,3597,25,34.563,-117.3542,Victorville,San Bernardino
92544,22585,53885,9702,33.6,253600,1652,50392,36403,2463,865,1152,23262,3223,183,33.64581,-116.86033,Hemet,Riverside
92067,95165,212188,936,45.4,2000001,4001,8968,7246,0,0,302,1668,1349,0,33.02087,-117.19209,Rancho Santa Fe,San Diego
92250,19428,49637,1692,37.2,236200,1366,8255,4980,57,0,57,6526,943,0,32.79188,-115.23454,Holtville,Imperial
92364,,,5,,,,5,5,0,0,0,0,0,0,35.35678,-115.43741,Nipton,San Bernardino
92545,22486,48052,5394,40.3,245400,1673,44278,31216,2943,639,1113,20239,2137,15,33.7311,-117.0359,Hemet,Riverside
92626,45669,95175,4054,35.8,803000,2724,50978,34043,1210,299,7250,13847,3181,616,33.67896,-117.90844,Costa Mesa,Orange
93242,23184,49659,488,32,232300,1104,3455,2582,0,53,127,2320,108,0,36.44115,-119.73024,Laton,Fresno
93591,18805,48911,781,35,191800,1158,6557,3979,373,18,26,4212,550,12,34.59656,-117.80955,Palmdale,Los Angeles
93616,16917,43281,770,29.4,266800,1551,2370,1440,0,0,127,2050,182,12,36.65468,-119.59437,Del Rey,Fresno
93728,19598,38091,4750,29.8,188600,1546,16738,10659,808,71,398,11298,2050,73,36.75729,-119.81816,Fresno,Fresno
93921,70149,93234,36,64.8,1617500,2958,2951,2712,2,0,54,99,183,0,36.55359,-121.92259,Carmel By The Sea,Monterey
93930,20449,57007,2764,30.8,314400,1707,17599,6557,141,84,174,14270,875,13,36.19924,-121.07282,King City,Monterey
93274,21186,55269,13951,28.4,227500,1503,75068,53749,2416,882,1627,48046,6939,202,36.17978,-119.37949,Tulare,Tulare
93627,9964,,0,21.6,,,134,0,0,0,0,134,0,0,36.51568,-120.10635,Helm,Fresno
93634,23356,,13,29.5,,,27,9,11,0,0,5,0,5,37.20583,-118.93652,Lakeshore,Fresno
93013,54708,82231,1224,43.4,819600,3126,17021,12321,126,174,302,7485,1500,256,34.42697,-119.48032,Carpinteria,Santa Barbara
93618,16811,46804,9627,26.8,217500,1423,31971,21633,102,187,498,26965,2124,119,36.52213,-119.38661,Dinuba,Tulare
93924,72043,127813,573,57.9,947000,3568,6421,5478,138,48,74,850,403,1,36.39489,-121.63406,Carmel Valley,Monterey
93925,17052,50987,382,30.5,438900,2186,1794,510,0,0,0,1663,35,0,36.60209,-121.42526,Chualar,Monterey
93667,29613,62446,348,48,251400,1428,2112,1704,0,259,0,111,130,0,36.96585,-119.31511,Tollhouse,Fresno
93673,12817,46406,170,26,159800,1469,702,563,0,0,2,618,20,5,36.45229,-119.48232,Traver,Tulare
93261,9103,20956,1135,34.6,119500,900,2179,1383,0,0,19,2164,188,0,35.81147,-119.11673,Richgrove,Tulare
96023,19685,33403,227,42.6,115200,860,1188,1017,10,37,18,358,50,0,41.92108,-121.97592,Dorris,Siskiyou
96039,23646,33523,253,54.7,153500,1074,896,516,4,205,17,70,132,1,41.66376,-123.37711,Happy Camp,Siskiyou
96048,28329,52950,68,60,332400,1181,795,703,0,38,6,132,9,0,40.82613,-123.05594,Junction City,Trinity
96050,26550,28438,137,62.3,174500,1646,414,368,0,6,3,31,37,0,41.85389,-122.95689,Klamath River,Siskiyou
96051,29859,55966,287,58.1,233100,1450,1193,1072,6,10,55,71,50,12,40.90112,-122.35664,Lakehead,Shasta
96001,33616,58673,3936,41.5,299600,1785,34008,29287,447,892,1146,2998,1515,51,40.57731,-122.45443,Redding,Shasta
96010,20334,35278,2,52.9,,,96,89,0,7,0,11,0,0,40.89735,-123.24365,Big Bar,Trinity
96011,14253,25089,104,43.5,125000,,260,221,4,18,1,15,15,0,41.05762,-121.89157,Big Bend,Shasta
96029,19221,44327,43,38.4,331300,1600,190,167,0,0,0,38,8,0,39.94003,-122.48743,Flournoy,Tehama
96041,18311,29198,783,42.9,236700,923,2871,2430,47,77,78,438,91,0,40.52059,-123.19991,Hayfork,Trinity
96046,19399,,19,61.2,,,124,124,0,0,0,0,0,0,40.61118,-123.43151,Hyampom,Trinity
96061,,,0,,,,0,0,0,0,0,0,0,0,40.34407,-121.48767,Mill Creek,Tehama
96075,17593,,48,40.3,,662,353,270,15,0,0,43,51,0,40.35582,-121.87196,Paynes Creek,Tehama
96084,18213,31563,182,55.1,209700,1466,514,302,0,35,22,127,147,0,40.79395,-121.91519,Round Mountain,Shasta
96013,21954,47138,995,36.6,165700,1195,4883,4368,60,155,61,294,157,0,40.97495,-121.68316,Burney,Shasta
96022,32534,63606,2115,43.2,247400,1643,14624,12873,51,224,411,1436,702,21,40.34232,-122.44814,Cottonwood,Tehama
96032,26366,51380,420,43.4,260800,1589,2732,2079,16,438,5,179,162,0,41.58503,-122.98291,Fort Jones,Siskiyou
96047,43111,60000,196,51.3,350900,1832,939,759,0,57,0,47,117,6,40.47695,-122.69889,Igo,Shasta
96052,24992,50729,305,46.5,278200,1387,1724,1498,16,67,15,74,80,21,40.68515,-122.80342,Lewiston,Trinity
96054,25715,42386,43,53.2,156800,1006,265,255,0,10,0,0,0,0,41.26665,-121.10633,Lookout,Modoc
96076,19304,27619,45,64.3,173200,,201,137,0,48,10,15,6,0,40.37547,-122.92996,Platina,Trinity
96103,43121,68526,124,65.1,331300,1678,1343,1307,0,0,13,61,21,0,39.78446,-120.66969,Blairsden Graeagle,Plumas
96104,25114,41184,77,47.6,167400,,920,890,0,26,3,162,1,0,41.48248,-120.12725,Cedarville,Modoc
96106,28914,,83,32.2,491200,2031,465,465,0,0,0,15,0,0,39.73552,-120.54388,Clio,Plumas
96109,29083,63218,238,40.9,149800,1134,914,913,0,0,0,3,1,0,39.99747,-120.09521,Doyle,Lassen
96113,13710,49287,140,36.3,,1164,1916,1194,344,146,23,451,85,0,40.18577,-120.14609,Herlong,Lassen
96125,54961,96406,0,69.8,319400,,84,84,0,0,0,0,0,0,39.61526,-120.60493,Sierra City,Sierra
96133,35201,,0,56.1,,,136,12,0,0,0,0,124,0,38.63181,-119.50423,Topaz,Mono
96137,34203,47697,484,57.7,205600,1633,3076,2824,50,19,0,215,183,0,40.38554,-121.12478,Westwood,Lassen
96021,22520,45455,3343,37.3,192700,1394,14970,11297,59,185,169,7472,1298,38,39.91871,-122.26813,Corning,Tehama
96074,20353,45625,2,32.8,,,109,87,9,0,0,23,0,0,39.87196,-122.58599,Paskenta,Tehama
96121,27429,73150,0,36.5,123100,,298,298,0,0,0,1,0,0,40.16938,-120.37659,Milford,Lassen
96112,18849,31406,54,47,255000,,210,113,1,96,0,35,0,0,41.8372,-120.09403,Fort Bidwell,Modoc
96111,43916,,0,60.2,533300,2125,111,111,0,0,0,0,0,0,39.41571,-120.01648,Floriston,Nevada
96129,25427,,0,57,,,301,301,0,0,0,0,0,0,39.81848,-120.35346,Beckwourth,Plumas
96135,23082,,31,40.9,576600,,280,280,0,0,0,0,0,0,39.81303,-120.20927,Vinton,Plumas
96155,,,0,,,,0,0,0,0,0,0,0,0,38.75294,-120.09222,South Lake Tahoe,El Dorado
92358,29645,53403,192,54.6,319600,1993,701,675,0,6,20,147,0,6,34.24624,-117.56762,Lytle Creek,San Bernardino
92404,19465,49799,11981,30.6,269700,1577,63261,34227,7538,540,1724,41852,5446,402,34.17862,-117.23891,San Bernardino,San Bernardino
92407,23818,72281,11903,29.5,352500,1827,67866,39822,6940,419,2804,44692,6676,306,34.22394,-117.38839,San Bernardino,San Bernardino
92561,35539,51528,263,58.7,303300,2037,1471,1320,5,52,34,200,31,0,33.63704,-116.57441,Mountain Center,Riverside
92651,95518,129164,1430,51.9,1945000,4001,23732,21192,106,39,674,1904,1075,115,33.56535,-117.77399,Laguna Beach,Orange
92653,55601,104571,2502,41.2,756900,2999,30080,20457,510,28,4694,6311,2274,192,33.59276,-117.69994,Laguna Hills,Orange
92656,50739,116350,2773,37.8,650400,2762,51940,35560,1355,192,7971,9755,3733,183,33.57518,-117.73036,Aliso Viejo,Orange
92692,54535,125115,2365,47.2,768200,2921,47548,34507,467,166,7231,7453,3649,67,33.60948,-117.64396,Mission Viejo,Orange
92703,18652,65687,9294,32.8,456200,1978,66428,15226,583,458,11261,51203,3280,1491,33.74853,-117.90621,Santa Ana,Orange
92782,60454,125469,1510,38.2,824700,3301,23166,10525,610,42,9463,3400,1630,28,33.72833,-117.79753,Tustin,Orange
92801,24295,65683,10359,33.7,511800,2218,65757,35347,3119,566,11814,39211,4938,1217,33.84441,-117.95175,Anaheim,Orange
92807,50567,120435,1578,43.2,700900,2786,36057,26461,546,64,5662,8685,2378,95,33.85001,-117.78946,Anaheim,Orange
92831,36483,80279,5236,29.6,662100,2710,36211,23035,1019,124,6473,13639,3335,440,33.8795,-117.89607,Fullerton,Orange
92832,27569,68287,5027,33.7,576300,2387,25887,15103,745,130,2811,13927,1857,513,33.86871,-117.92914,Fullerton,Orange
92833,37451,88725,5311,37.3,659600,2740,52537,23954,888,325,18431,19349,3575,720,33.88051,-117.96112,Fullerton,Orange
92845,43149,105189,981,43.3,634100,2723,15490,12202,96,83,1939,2776,688,30,33.78292,-118.0264,Garden Grove,Orange
92612,45682,74672,9525,29.8,771800,3121,32069,15959,866,6,12365,3852,1533,246,33.65984,-117.82457,Irvine,Orange
92614,48286,107662,3207,33.6,752800,2786,27471,13635,382,83,9563,2582,2959,181,33.68173,-117.83316,Irvine,Orange
92627,43178,85585,7471,35.5,817100,2989,62437,41415,492,418,2953,27259,3790,612,33.64786,-117.9205,Costa Mesa,Orange
92647,40107,91331,6260,37,737800,2663,61476,37201,1586,384,8696,16733,4743,253,33.72395,-118.00685,Huntington Beach,Orange
92648,59555,97470,3153,44.2,949000,3533,45328,33621,250,122,5161,7658,3422,69,33.68212,-118.0101,Huntington Beach,Orange
92655,20039,41538,2166,40.3,571600,2337,8730,2646,87,0,4510,2843,79,21,33.74606,-117.98765,Midway City,Orange
92663,81486,106209,1827,43.3,1532200,3777,22721,19903,226,19,775,2774,1229,104,33.62328,-117.93022,Newport Beach,Orange
92676,55215,107083,105,48.9,721100,2569,2033,1854,5,0,49,266,91,0,33.75306,-117.63534,Silverado,Orange
92707,24287,86001,6337,32.5,502100,1971,62698,29027,360,660,4583,51730,3093,1391,33.70991,-117.87045,Santa Ana,Orange
92841,26281,65934,5255,39.4,590700,2349,33990,11695,186,118,17114,10026,1088,294,33.7868,-117.98207,Garden Grove,Orange
92844,24852,63598,4079,42.4,527200,2226,22686,4281,547,120,14099,4678,993,126,33.76561,-117.96952,Garden Grove,Orange
92861,81286,164919,441,51.4,1239600,4001,5886,4545,32,0,941,601,228,14,33.81801,-117.81031,Villa Park,Orange
92865,40404,107706,1449,36.6,629800,2677,21003,13736,270,250,3397,8221,1554,179,33.82887,-117.84925,Orange,Orange
92868,29185,69034,3318,33.4,511900,2163,26549,15775,999,155,3789,13099,1732,223,33.78799,-117.87637,Orange,Orange
92009,62889,138138,2209,41.8,910000,3621,46849,38685,423,64,3846,5392,3081,157,33.09535,-117.24574,Carlsbad,San Diego
92014,103633,162305,567,50.6,1686000,4001,13133,11413,157,0,807,791,610,10,32.96797,-117.24879,Del Mar,San Diego
92029,50425,96690,975,44.5,669300,2935,19361,15071,404,29,1441,4615,1707,138,33.08555,-117.12885,Escondido,San Diego
92057,33657,81339,5009,37,495900,2486,59190,38552,3767,462,5144,23401,6715,594,33.25326,-117.28704,Oceanside,San Diego
92061,25234,43787,456,34.7,545000,2291,2273,1271,11,738,32,843,164,0,33.30036,-116.93048,Pauma Valley,San Diego
92082,38055,94067,1967,43.7,586400,3071,19636,14012,335,1020,521,6633,2418,25,33.2518,-117.00284,Valley Center,San Diego
92102,27580,54862,7369,33.4,454500,2095,42413,29129,3785,497,3000,23772,2422,1383,32.71595,-117.11749,San Diego,San Diego
92131,59213,137987,1345,40.2,831700,3232,34922,20463,716,24,9984,3437,2855,228,32.89604,-117.05737,San Diego,San Diego
92203,36424,77281,3369,42.5,357800,2101,32360,21994,413,242,663,15417,4428,122,33.75159,-116.24139,Indio,Riverside
92239,25366,35938,7,70.2,112300,,295,257,5,0,0,39,14,1,33.87424,-115.24396,Desert Center,Riverside
92258,10543,,269,43.4,93600,,517,415,57,0,0,331,0,22,33.91791,-116.56002,North Palm Springs,Riverside
92268,33101,44500,36,61.7,362500,1531,360,360,0,0,0,65,0,0,34.16146,-116.55002,Pioneertown,San Bernardino
92281,13960,31935,1051,24.9,150200,1068,2865,1282,69,0,11,2424,209,20,33.05033,-115.61264,Westmorland,Imperial
92352,45751,89625,577,47,450000,2218,6319,5720,57,28,73,973,363,0,34.26824,-117.18486,Lake Arrowhead,San Bernardino
92368,17709,36500,329,30.5,206800,1389,1058,678,44,3,35,562,175,5,34.65508,-117.30893,Oro Grande,San Bernardino
92373,48371,81557,2710,38.8,485300,2500,32433,24113,1301,138,2357,7644,2590,68,34.00648,-117.15351,Redlands,San Bernardino
92374,31875,78191,5337,33.3,374200,2116,44131,28431,3104,133,3262,19368,4776,208,34.06738,-117.17482,Redlands,San Bernardino
92386,26721,38378,578,46.3,277100,1368,2038,1924,84,30,0,445,0,0,34.23702,-116.82523,Sugarloaf,San Bernardino
92397,40179,63705,629,50.2,347100,1858,4638,4227,25,0,186,806,92,0,34.36212,-117.69136,Wrightwood,Los Angeles
92549,37877,79276,372,53.6,374800,1474,2988,2270,95,27,188,606,15,0,33.80886,-116.71212,Idyllwild,Riverside
93263,15869,45867,5466,27.2,188900,1294,21854,15099,355,25,93,18536,2809,41,35.48722,-119.27835,Shafter,Kern
93276,23639,,14,36,100000,1375,134,121,0,0,0,16,11,0,35.31756,-119.4092,Tupman,Kern
93041,26250,64208,2639,32,434500,2166,24102,16972,969,209,724,13665,3577,68,34.14956,-119.17458,Port Hueneme,Ventura
93101,37920,62925,5008,31.6,890300,3043,32650,22966,527,339,834,15660,3418,844,34.41925,-119.70808,Santa Barbara,Santa Barbara
93247,15746,39426,5215,33.9,193400,1346,17334,12243,63,68,180,14108,1641,0,36.20234,-119.08277,Lindsay,Tulare
93420,43092,91211,1607,47.1,681300,2547,29915,24733,363,216,1013,4147,2313,65,35.16682,-120.46617,Arroyo Grande,San Luis Obispo
93454,23894,68954,4439,31.4,356900,1893,40600,29668,530,286,1664,28737,5212,337,34.94834,-120.23425,Santa Maria,Santa Barbara
93626,46107,90703,165,39,520400,2699,2464,1755,108,46,327,627,180,0,37.03278,-119.68601,Friant,Madera
93501,19526,41047,1211,40.2,114600,991,4798,2688,858,144,49,2067,258,0,35.0411,-118.22922,Mojave,Kern
93012,51959,106388,2155,42.6,640500,2775,35726,27342,523,200,3585,8397,3255,139,34.20518,-118.99309,Camarillo,Ventura
96091,30964,44922,62,61.4,312200,1813,678,554,0,102,3,10,10,0,41.04567,-122.78053,Trinity Center,Trinity
96096,34636,54844,81,54,308500,1592,718,644,2,37,2,54,32,7,40.63738,-121.87552,Whitmore,Shasta
96105,32564,41563,69,51.1,,,351,170,0,69,0,0,83,0,39.82478,-120.1821,Chilcoot,Plumas
96119,,,0,,,,11,0,0,0,0,0,0,0,41.03353,-120.55264,Madeline,Lassen
96148,37038,81833,0,42.2,805600,3409,679,555,0,0,0,256,14,0,39.24978,-120.05767,Tahoe Vista,Placer
96006,27048,51964,104,43.6,150500,1457,615,538,0,52,1,1,23,0,41.15575,-120.83952,Adin,Lassen
96007,26211,48996,3468,39.6,226800,1442,23670,20150,172,708,302,3753,1455,75,40.45507,-122.30468,Anderson,Shasta
96062,40503,78684,176,46.8,333900,1912,1217,1142,0,4,3,44,56,0,40.56373,-122.06646,Millville,Shasta
96063,26183,51250,10,40.2,167900,682,250,226,0,0,0,0,24,0,40.35708,-121.60236,Mineral,Tehama
96088,31482,53654,261,55.4,244700,1402,5022,4585,40,102,24,323,230,0,40.50983,-121.88848,Shingletown,Shasta
96090,26245,45625,69,47.5,177900,1351,503,371,0,10,5,135,39,8,40.00681,-122.12142,Tehama,Tehama
96093,25518,45208,929,43.4,285900,1628,3469,2922,2,268,40,183,39,35,40.77237,-122.94329,Weaverville,Trinity
96108,37020,81250,10,65.1,,,158,158,0,0,0,0,0,0,41.77687,-120.42351,Davis Creek,Modoc
96110,29036,61875,0,54.4,,1100,87,87,0,0,0,0,0,0,41.26637,-120.10763,Eagleville,Modoc
96115,26749,,53,67,181700,,167,161,6,0,0,0,0,0,41.70753,-120.14047,Lake City,Modoc
96116,44772,54301,0,65,2000001,,149,149,0,0,0,0,0,0,41.2603,-120.44841,Likely,Modoc
96117,19979,53125,94,42.3,211900,1275,304,304,0,0,0,1,0,0,40.54556,-120.23978,Litchfield,Lassen
96145,49054,84648,101,43.5,702600,2668,2664,2442,78,22,65,83,40,28,39.18203,-120.15143,Tahoe City,Placer
93249,12627,35833,451,23.6,125000,1269,1959,1422,0,0,16,1904,278,0,35.67033,-119.85814,Lost Hills,Kern
93609,16795,53084,1024,32.3,172300,1157,5328,2718,219,3,255,3620,724,6,36.52616,-119.86388,Caruthers,Fresno
93505,20172,47641,2881,34.3,161200,1120,13993,7325,3577,362,360,4784,1149,43,35.15708,-117.90934,California City,Kern
93526,28876,54861,44,44.3,190600,1516,767,544,7,111,3,134,93,0,36.85941,-118.25378,Independence,Inyo
93711,50460,74979,3203,40.7,378000,2046,38680,27068,1347,672,4104,10501,2605,118,36.83508,-119.83309,Fresno,Fresno
93720,43701,91096,3047,37.5,345700,1975,46725,31308,1296,267,7637,12262,3745,25,36.8606,-119.76228,Fresno,Fresno
93267,14285,32003,2944,36.7,150400,1220,6325,4643,0,16,18,4370,141,0,36.14279,-119.0742,Strathmore,Tulare
93422,38325,81599,2003,39.2,551000,2296,34005,30420,247,399,538,6294,1547,207,35.4638,-120.69007,Atascadero,San Luis Obispo
93635,23208,63529,5744,29.5,318100,1647,41563,22678,834,448,1261,29366,2802,192,37.016,-120.88294,Los Banos,Merced
93640,9893,35982,5028,27.1,176500,1254,13578,5176,299,9,38,12588,171,0,36.67215,-120.43778,Mendota,Fresno
92069,31865,77618,4920,34.5,551000,2624,48048,31815,968,492,5388,22105,3500,271,33.17536,-117.15761,San Marcos,San Diego
92086,32298,38152,161,60.4,189800,1465,1259,971,29,126,84,168,28,0,33.29718,-116.64176,Warner Springs,San Diego
92126,37921,99376,6031,34,571900,2368,83257,27744,3507,251,39868,13721,6708,1044,32.912,-117.14344,San Diego,San Diego
92130,76363,157333,2668,38.4,1116200,4001,56741,34059,553,213,17688,4443,3431,291,32.94763,-117.20586,San Diego,San Diego
92236,19472,34269,8609,36.6,239600,1641,45975,12206,253,353,163,44314,1619,113,33.70276,-116.07254,Coachella,Riverside
92256,30227,44944,625,50,180200,1124,3176,2611,8,21,21,669,221,8,34.07207,-116.61761,Morongo Valley,San Bernardino
92283,13830,27014,663,34,60800,928,1730,621,25,785,15,547,243,0,32.83741,-114.79462,Winterhaven,Imperial
92328,41663,90962,65,43.1,9999,,578,427,12,21,19,159,91,7,36.39482,-117.02718,Death Valley,Inyo
96037,33983,83723,2,64.1,,,188,187,0,0,1,0,0,0,41.54368,-122.93177,Greenview,Siskiyou
96002,28930,60102,5627,36.6,257700,1656,33943,26419,584,1081,1964,4341,2999,88,40.5299,-122.31679,Redding,Shasta
96019,24495,48586,1707,38.6,203700,1442,10216,8977,35,299,25,1071,699,67,40.68729,-122.39927,Shasta Lake,Shasta
95448,57057,95938,1630,47.3,927300,2948,17353,14455,39,111,210,3942,705,59,38.62309,-122.89089,Healdsburg,Sonoma
95148,43061,143641,2790,39.3,924400,3329,48629,10423,1215,98,29591,12327,1970,562,37.33252,-121.78142,San Jose,Santa Clara
91724,34045,84679,2561,39.6,584200,2537,27510,14096,1516,422,4278,14655,2089,541,34.0805,-117.85515,Covina,Los Angeles
91103,38734,71600,5012,38.5,740500,2958,26837,10127,4391,57,2665,13365,1489,761,34.16738,-118.16446,Pasadena,Los Angeles
91008,126055,108846,45,58,1505700,4001,1079,651,10,0,339,131,64,16,34.15363,-117.96862,Duarte,Los Angeles
91046,23262,,0,78.5,,,191,167,0,0,0,5,0,0,34.2117,-118.24092,Verdugo City,Los Angeles
91210,67839,138333,17,35.4,480000,,352,272,0,0,80,63,0,0,34.14468,-118.25809,Glendale,Los Angeles
91330,5889,,0,19.7,,,3136,1629,501,0,532,1044,255,77,34.2446,-118.52669,Northridge,Los Angeles
91371,,,0,,,,0,0,0,0,0,0,0,0,34.18505,-118.57605,Woodland Hills,Los Angeles
91387,36134,94545,3872,35.1,565300,2699,41145,25919,2426,529,4472,16266,4267,387,34.39708,-118.3707,Canyon Country,Los Angeles
91390,45842,121902,687,42.4,611700,2974,19093,14511,449,161,1157,5182,976,153,34.53159,-118.40668,Santa Clarita,Los Angeles
91708,19374,57198,0,35.3,612600,2561,4880,1898,1210,34,671,1179,744,0,33.95141,-117.64506,Chino,San Bernardino
91915,37835,125864,2244,32.9,586300,3016,33991,16509,1848,237,8851,15675,4246,102,32.62266,-116.95013,Chula Vista,San Diego
93442,43169,73701,904,52.3,657500,2301,10955,9431,8,34,582,1385,505,45,35.4,-120.80495,Morro Bay,San Luis Obispo
93444,38866,93603,1465,42.2,637200,2454,22383,17261,277,207,697,9599,2591,22,35.03553,-120.50293,Nipomo,San Luis Obispo
93453,36959,50893,298,59.2,501400,1924,2414,2204,101,0,0,172,89,0,35.31339,-120.1655,Santa Margarita,San Luis Obispo
93463,62176,98116,531,52.4,828000,3270,7846,6877,181,82,231,1166,295,26,34.60688,-120.13495,Solvang,Santa Barbara
93514,34438,64330,1371,44.1,311000,1976,14423,10940,42,1453,242,3268,1034,31,37.4947,-118.38514,Bishop,Mono
93529,61173,100586,65,66.5,417700,2672,413,405,0,0,8,15,0,0,37.7832,-119.1375,June Lake,Mono
93541,42461,48681,13,43.2,,,266,266,0,0,0,14,0,0,37.99678,-119.01847,Lee Vining,Mono
93549,29830,58558,20,57.3,168500,1625,273,253,0,11,9,39,0,0,36.27728,-117.96016,Olancha,Inyo
93562,21094,35703,514,39,51900,864,1757,1465,100,24,31,356,124,5,35.70667,-117.34263,Trona,San Bernardino
93268,20737,45655,5797,30.1,162100,1290,18389,14842,169,65,360,7428,1144,9,35.16725,-119.40785,Taft,Kern
93271,42512,71929,193,51.6,293400,1859,2699,2441,54,11,148,203,45,19,36.43661,-118.86903,Three Rivers,Tulare
93954,14379,56111,124,31.8,211400,1393,438,141,0,0,0,364,0,0,36.16434,-120.92441,San Lucas,Monterey
93955,28748,68772,4073,33.8,543200,2281,34757,19281,2541,143,3374,15394,2885,583,36.62153,-121.79562,Seaside,Monterey
93960,15392,65108,3264,35.1,411200,1838,27009,10139,2379,197,509,20318,917,33,36.40489,-121.32121,Soledad,Monterey
93962,69006,,0,64.7,648000,2980,373,336,0,37,0,117,0,10,36.62472,-121.64649,Spreckels,Monterey
93272,15086,46250,1015,25.9,163700,889,4925,3833,0,20,0,4307,454,0,36.04818,-119.34535,Tipton,Tulare
93308,23442,46071,12273,35.4,235300,1653,55211,44410,1106,627,1809,13308,3961,254,35.5498,-118.93389,Bakersfield,Kern
93402,38434,81494,1493,47,591600,2373,16198,13782,29,137,613,3184,838,12,35.29082,-120.8392,Los Osos,San Luis Obispo
93429,26330,,0,68.7,263200,,88,48,13,0,0,75,0,0,34.86682,-120.53582,Casmalia,Santa Barbara
93430,41205,67750,451,58.9,845200,2365,2681,2506,2,2,56,431,67,9,35.49214,-120.92422,Cayucos,San Luis Obispo
93063,41468,96654,4612,42.1,606200,2581,56259,40260,536,281,7315,13522,4837,310,34.30922,-118.69041,Simi Valley,Ventura
93205,15077,23051,1142,41.8,90900,1170,2164,1778,0,54,0,253,242,0,35.5387,-118.45463,Bodfish,Kern
93224,22676,49500,67,37,120500,1304,364,311,0,0,2,54,28,0,35.21687,-119.58087,Fellows,Kern
93226,36249,,4,66.4,246700,1383,82,68,4,8,0,0,2,0,35.7476,-118.73462,Glennville,Kern
93240,22398,33793,1271,50.1,149200,1318,6096,5472,60,183,57,430,292,0,35.62425,-118.4645,Lake Isabella,Kern
93251,17732,46719,32,37.5,,2150,237,150,0,7,12,111,57,0,35.37059,-119.69735,McKittrick,Kern
93265,41085,67617,407,46.9,276900,1736,3230,2961,23,0,18,640,112,0,36.20713,-118.70876,Springville,Tulare
93287,37699,101250,3,25.4,232400,1848,75,62,0,8,0,13,5,0,35.72387,-118.91958,Woody,Kern
93309,25029,52268,11525,31.6,214100,1456,58709,36770,5722,385,2672,27683,7191,354,35.34266,-119.06461,Bakersfield,Kern
93311,41006,93200,3674,33.1,303300,2057,46618,27593,2678,279,7892,16853,4603,69,35.15378,-119.16567,Bakersfield,Kern
93427,44506,106682,179,42.7,598900,2879,6195,5320,69,14,105,1632,177,73,34.62724,-120.22465,Buellton,Santa Barbara
93446,38759,76859,3540,40.6,487600,2277,44960,38153,84,472,1140,12822,2852,102,35.65861,-120.71888,Paso Robles,San Luis Obispo
93451,31617,70568,689,39.8,395100,2077,4233,3258,4,75,67,2155,276,0,35.89398,-120.56733,San Miguel,Monterey
93254,25717,39375,68,49.5,183900,1142,757,696,11,4,7,318,4,0,34.92498,-119.74834,New Cuyama,Santa Barbara
93285,23638,29194,574,58.1,89000,1692,2009,1809,0,0,0,215,73,0,35.72233,-118.50871,Wofford Heights,Kern
93286,18206,44980,3057,29.8,213100,1407,10466,6943,42,211,175,8298,715,14,36.45149,-119.1079,Woodlake,Tulare
93312,36001,97615,4049,32.7,302200,1977,59200,42830,1767,235,3863,18720,5502,39,35.39186,-119.11954,Bakersfield,Kern
93109,55574,99556,2005,45.3,1300600,3621,11289,9026,329,53,693,2253,354,96,34.40662,-119.72682,Santa Barbara,Santa Barbara
93111,57252,117480,1053,43.7,936200,3454,18468,14706,109,66,1122,3806,939,505,34.44932,-119.80223,Santa Barbara,Santa Barbara
93201,10989,33688,480,24,97300,1526,1251,805,3,22,0,1134,292,0,35.8555,-119.48338,Alpaugh,Tulare
93221,29076,61782,2724,37.8,268200,1599,14596,10369,181,151,341,6726,830,0,36.29637,-119.02992,Exeter,Tulare
93230,26984,65674,9212,33.6,235100,1569,68896,49392,3326,574,2681,34820,6408,61,36.28967,-119.62514,Hanford,Kings
93401,47492,78788,3842,36.1,711600,2891,28751,23772,767,115,1429,5750,1525,256,35.23539,-120.61834,San Luis Obispo,San Luis Obispo
93252,15495,40870,510,37.9,80600,983,3180,2461,47,52,94,1429,329,5,34.80685,-119.34664,Maricopa,Ventura
93458,17716,59937,8338,26.2,342000,1742,56572,39703,661,695,2498,49016,7084,559,34.95477,-120.49042,Santa Maria,Santa Barbara
93530,,,0,,,,6,6,0,0,0,0,0,0,36.48458,-117.87201,Keeler,Inyo
93552,20661,66289,5936,32.3,302600,1761,39776,17656,4682,638,1056,28049,1701,204,34.58412,-118.02386,Palmdale,Los Angeles
93933,33162,73856,3215,34.1,572000,2377,25056,13421,1633,80,3436,7212,3407,221,36.67566,-121.78237,Marina,Monterey
93638,16416,49021,15305,28.5,228600,1269,51353,25382,1411,268,762,41960,4315,177,37.0424,-120.03816,Madera,Madera
93030,24787,78522,6751,33.7,492200,2170,59844,39038,1278,742,3578,46538,7215,298,34.2051,-119.1753,Oxnard,Ventura
93040,24228,65625,220,36,381300,1669,1822,1420,43,44,0,1602,73,0,34.59337,-118.93657,Piru,Ventura
93455,39167,93200,2539,37.5,437600,2177,45246,34351,903,522,2049,16157,5237,429,34.84195,-120.45522,Santa Maria,Santa Barbara
90250,27239,60162,14264,33.1,609900,2366,95115,35220,23399,845,6635,51406,7590,2152,33.91383,-118.34996,Hawthorne,Los Angeles
90601,33748,76177,2945,40.3,590700,2441,30623,14155,356,487,2257,20899,2544,129,34.0078,-118.03287,Whittier,Los Angeles
90254,96152,142500,803,40.2,1649900,4001,19147,15560,137,91,1167,2152,1790,104,33.86532,-118.39616,Hermosa Beach,Los Angeles
90710,29691,65119,3639,38.8,511100,2439,28566,11455,3592,103,6650,12703,2293,357,33.79806,-118.29918,Harbor City,Los Angeles
90073,13692,,513,56.8,,,962,513,197,13,96,214,49,21,34.05738,-118.45956,Los Angeles,Los Angeles
90079,,,0,,,,0,0,0,0,0,0,0,0,34.04058,-118.25541,Los Angeles,Los Angeles
90089,7595,,20,19.2,,,3740,1957,240,0,1193,642,139,21,34.02158,-118.2856,Los Angeles,Los Angeles
90094,105453,170634,483,37.7,1092300,4001,9065,5962,539,0,1586,1031,760,7,33.97523,-118.41837,Playa Vista,Los Angeles
90095,,,0,,,,0,0,0,0,0,0,0,0,34.07121,-118.44334,Los Angeles,Los Angeles
90506,,,0,,,,0,0,0,0,0,0,0,0,33.88493,-118.33044,Torrance,Los Angeles
90747,,,0,,,,0,0,0,0,0,0,0,0,33.86372,-118.25142,Carson,Los Angeles
90755,41270,86140,1474,37.3,530200,2459,11458,5727,1313,7,2467,4183,599,240,33.80274,-118.16747,Signal Hill,Los Angeles
90831,,,0,,,,0,0,0,0,0,0,0,0,33.76824,-118.20055,Long Beach,Los Angeles
92363,20648,33479,1574,43.8,110700,905,5374,3750,116,805,53,1287,553,0,34.70863,-114.57562,Needles,San Bernardino
92008,51643,86046,2576,41.7,830700,2990,27119,22494,222,267,1058,5476,2146,365,33.14564,-117.31691,Carlsbad,San Diego
92036,38344,64861,233,58.1,389500,1820,2619,2207,98,2,2,347,287,0,33.01137,-116.37672,Julian,San Diego
92106,62484,114158,1074,39.1,1039300,3584,20592,16471,531,220,992,2844,1105,99,32.71334,-117.23617,San Diego,San Diego
92108,53133,80572,2182,32.5,405100,2285,21013,14347,1602,161,2275,5219,1658,292,32.77423,-117.14097,San Diego,San Diego
92109,57739,92379,3709,32.5,919700,3169,46777,39605,788,99,1864,7186,2552,538,32.78699,-117.23273,San Diego,San Diego
92121,58369,118155,800,32.4,802400,3101,4668,2650,50,0,1412,492,441,80,32.8973,-117.20231,San Diego,San Diego
92128,51775,104501,2687,44,645700,2661,52225,32324,1487,30,12117,5878,4106,308,32.99687,-117.07308,San Diego,San Diego
92227,19597,47367,8358,29.5,217500,1501,27165,20559,251,361,119,22280,2540,5,32.98677,-115.3341,Brawley,Imperial
92249,16113,58148,1077,29.5,208900,1571,8459,5052,8,126,96,8350,1554,0,32.72606,-115.48218,Heber,Imperial
92257,11002,,700,53.1,64600,926,1217,825,252,0,11,348,37,3,33.33976,-115.52814,Niland,Imperial
92264,54887,60318,2817,59.2,371000,2166,20881,17041,394,275,1140,4384,1129,95,33.73575,-116.50544,Palm Springs,Riverside
92277,20410,41322,5868,25.8,135800,1155,24464,15769,2368,149,831,5642,4164,33,34.11248,-115.68752,Twentynine Palms,San Bernardino
92301,14443,48819,8040,27.9,212200,1368,34791,18610,6265,301,510,23274,5274,15,34.65183,-117.52617,Adelanto,San Bernardino
92315,33883,55061,831,40.6,395800,1755,5307,4635,30,79,91,1666,354,0,34.22011,-116.95301,Big Bear Lake,San Bernardino
92105,21247,48072,18208,32.8,443100,1866,75990,32014,10109,1042,13587,39848,7138,2992,32.73756,-117.09193,San Diego,San Diego
92107,51062,84190,2824,35.4,924100,2950,31667,26038,897,242,1041,4726,2554,328,32.7402,-117.24357,San Diego,San Diego
95073,48076,96052,1371,41.7,813700,3075,11289,9846,27,34,252,1928,853,110,37.04068,-121.93174,Soquel,Santa Cruz
95139,47008,157500,124,38.6,861500,3143,7262,3948,53,0,1694,2497,1056,76,37.22489,-121.76393,San Jose,Santa Clara
95322,24942,60478,1976,35.4,299300,1577,10016,5796,8,136,286,6360,584,0,37.17622,-121.01861,Gustine,Merced
95372,31302,82979,113,36.3,297500,1748,1761,1634,0,80,0,244,47,0,37.98927,-120.26272,Soulsbyville,Tuolumne
95421,38497,61691,226,55.7,534900,2362,1662,1408,0,9,79,132,98,7,38.58276,-123.18037,Cazadero,Sonoma
95442,111898,144129,464,57.1,1153900,2821,3143,2752,6,37,0,198,38,0,38.3785,-122.51549,Glen Ellen,Sonoma
95635,33582,62308,120,56.5,316700,1830,801,728,20,0,0,148,22,0,38.91111,-120.90043,Greenwood,El Dorado
95351,16371,44517,10955,29,217600,1349,48844,30894,1523,306,2690,35323,6279,148,37.6236,-120.99828,Modesto,Stanislaus
95013,,,0,,,,34,34,0,0,0,0,0,0,37.21531,-121.73962,Coyote,Santa Clara
95053,4946,,0,19.4,,,3835,2457,94,30,795,642,275,12,37.34848,-121.93737,Santa Clara,Santa Clara
95075,48241,128750,24,45.1,786900,2688,429,410,0,4,2,105,6,0,36.80112,-121.19258,Tres Pinos,San Benito
95645,19604,44297,365,39.2,285200,1628,1704,1616,0,23,0,1304,38,0,38.89025,-121.79992,Knights Landing,Yolo
93932,33188,75446,98,54.4,309400,1656,502,467,18,0,17,13,0,0,36.00143,-121.05757,Lockwood,Monterey
93953,89772,143750,101,63.7,1364300,3985,3783,3096,19,0,529,320,76,0,36.58566,-121.94329,Pebble Beach,Monterey
93003,40014,81501,4430,41.3,593000,2416,51461,40965,1017,309,2499,17066,4302,443,34.28434,-119.22256,Ventura,Ventura
93023,46863,80685,1723,50.7,673200,2785,21011,18263,70,90,594,3964,1337,185,34.50372,-119.24856,Ojai,Ventura
93103,52794,84853,2098,39.6,1092500,3437,20542,14879,404,171,730,9593,1515,409,34.43888,-119.68173,Santa Barbara,Santa Barbara
93108,107232,165764,540,54.4,2000001,4001,10451,9110,75,8,436,992,564,5,34.44934,-119.60397,Santa Barbara,Santa Barbara
93601,33050,64634,102,56.1,320600,1645,1418,1321,0,20,0,64,74,0,37.39395,-119.73702,Ahwahnee,Madera
93603,22146,,99,58.8,,,141,141,0,0,0,0,0,0,36.55118,-118.99607,Badger,Tulare
93928,31680,,0,24.9,,,1019,651,113,0,91,213,164,66,36.06484,-121.38102,Jolon,Monterey
93245,27426,65631,4467,28.9,247100,1581,38275,23316,3012,1144,2564,14841,2895,30,36.28614,-119.83405,Lemoore,Kings
93449,61673,90837,650,57.5,759800,2727,8042,7104,95,7,262,671,241,52,35.15803,-120.6504,Pismo Beach,San Luis Obispo
93628,31959,,0,26.9,,,289,289,0,0,0,0,0,0,36.78149,-118.83839,Hume,Fresno
95959,43137,70975,2107,55,473200,2187,17838,16397,132,19,309,1451,826,12,39.34509,-120.86797,Nevada City,Nevada
95965,20519,35668,5093,37,189500,1320,20681,13460,952,401,3132,3105,1975,152,39.59169,-121.59034,Oroville,Butte
95966,25612,48228,4686,45.2,231200,1418,29444,22729,319,845,1603,4274,2788,87,39.47332,-121.43284,Oroville,Butte
95970,41147,65625,139,49.7,371700,1583,533,485,22,5,0,119,13,0,39.41159,-122.05176,Princeton,Glenn
95993,34953,74188,3153,38.6,343300,1848,37713,21650,691,470,10158,7427,3096,128,39.08171,-121.68798,Yuba City,Sutter
95204,30653,56041,4176,35.1,260400,1681,28860,17721,1929,162,2066,13984,3969,124,37.97403,-121.31906,Stockton,San Joaquin
95230,39507,90417,66,35.3,625000,3100,661,444,0,0,66,183,0,35,37.97361,-120.86492,Farmington,Stanislaus
95231,15095,54615,590,33.9,382100,1771,5520,3747,497,54,214,3485,241,20,37.87331,-121.29272,French Camp,San Joaquin
95246,33931,72841,60,58.5,316700,,1234,1207,0,20,7,165,0,0,38.23662,-120.49589,Mountain Ranch,Calaveras
95247,36721,56313,158,57.8,337900,1821,3853,3477,34,58,16,386,116,0,38.14264,-120.44359,Murphys,Calaveras
95315,20990,62533,2437,33.4,264000,1399,14434,5748,11,190,544,10281,652,71,37.42243,-120.7733,Delhi,Merced
95325,,,0,,,,65,65,0,0,0,32,0,0,37.48058,-120.24208,Hornitos,Mariposa
95326,32771,75388,1081,36.4,355900,2142,10669,8994,35,83,538,3095,280,29,37.58998,-120.8531,Hughson,Stanislaus
95328,17536,46277,869,31.1,288000,1180,3680,2449,23,71,39,2966,603,13,37.55797,-120.90932,Keyes,Stanislaus
95841,27946,53866,3035,35.3,281100,1636,20063,13716,1539,268,1646,4265,1933,101,38.66031,-121.34812,Sacramento,Sacramento
95912,27754,64923,455,34.5,330200,1664,5112,3777,51,20,9,3353,654,0,39.0016,-122.07462,Arbuckle,Colusa
95942,111240,174028,99,51.9,534500,2274,1605,1419,0,0,0,188,144,0,39.98954,-121.58872,Forest Ranch,Butte
95944,42585,,0,61.7,,,80,80,0,0,0,0,0,0,39.53482,-120.86159,Goodyears Bar,Sierra
95948,24344,56667,948,33.4,245300,1419,12122,9209,34,54,88,4673,425,0,39.34289,-121.75818,Gridley,Butte
95950,15526,33309,252,47.1,,,494,415,0,0,0,147,66,0,39.05144,-121.92196,Grimes,Colusa
95953,23916,59875,2014,33.8,247800,1550,11073,7097,167,50,1507,4981,1216,22,39.25018,-121.77309,Live Oak,Sutter
95956,40162,,19,55,249500,1245,399,356,0,22,21,22,0,0,39.8751,-121.12209,Meadow Valley,Plumas
95983,31536,47321,8,58,,2075,306,203,0,12,0,80,65,0,40.05827,-120.73897,Taylorsville,Plumas
95987,26563,72500,692,30.7,273400,1640,6040,4855,9,120,81,4644,590,0,39.10299,-122.2726,Williams,Colusa
95334,18359,59412,2786,31,234900,1473,17624,5832,19,213,2911,12514,889,0,37.34756,-120.74624,Livingston,Merced
95337,31801,86414,3954,34.6,442800,2258,40657,22713,2051,421,6368,16145,6069,364,37.74171,-121.23834,Manteca,San Joaquin
95356,36601,76225,2870,37.5,358900,1932,32387,21930,641,400,3248,9633,3299,247,37.71945,-121.02786,Modesto,Stanislaus
95363,25886,72898,2338,32.2,336700,1881,28333,18751,1329,200,1239,18951,3892,50,37.37251,-121.27192,Patterson,Stanislaus
95383,52086,75313,193,50.3,334300,1748,3816,3588,0,0,10,318,154,0,38.09534,-120.22602,Twain Harte,Tuolumne
95387,14577,53229,52,34.4,,,600,600,0,0,0,540,0,0,37.55429,-121.2451,Westley,Stanislaus
95403,35913,79990,3771,38.5,559000,2491,44716,28181,1050,417,2205,15666,3332,482,38.50326,-122.75358,Santa Rosa,Sonoma
95409,51596,77849,1544,51.3,647000,2700,26739,20818,269,198,1909,4472,1695,93,38.46116,-122.60425,Santa Rosa,Sonoma
95422,18750,36623,4447,38.6,131400,1184,15644,10519,693,679,145,4532,1190,136,38.97829,-122.6423,Clearlake,Lake
95423,30478,46833,593,54.2,203600,1177,3597,3166,30,68,58,507,38,0,39.06749,-122.62753,Clearlake Oaks,Lake
95425,44842,81905,962,46.5,524600,2473,11144,8985,108,255,185,2922,747,28,38.81792,-123.02566,Cloverdale,Sonoma
95454,21095,35947,568,56.2,372100,2030,2165,1320,18,304,0,198,211,0,39.78063,-123.51631,Laytonville,Mendocino
95456,30711,26127,146,67.2,469000,2160,682,671,0,0,2,36,9,0,39.25851,-123.74585,Little River,Mendocino
95459,31725,52415,83,40.9,500000,2240,838,633,0,49,0,285,146,0,38.99068,-123.62627,Manchester,Mendocino
95464,19613,50764,654,39.7,116500,1319,2715,1837,103,405,59,602,44,0,39.12736,-122.84733,Nice,Lake
95493,35913,66838,14,76.3,360900,,99,90,0,0,0,9,0,0,39.20241,-122.97948,Witter Springs,Lake
95525,35592,50833,313,55.5,365400,1851,1403,1152,0,95,5,74,92,17,40.94845,-123.82629,Blue Lake,Humboldt
95526,42859,32500,59,62.1,283900,1625,210,189,0,9,0,6,12,0,40.44705,-123.6628,Bridgeville,Humboldt
95548,20078,38092,247,50.1,183300,1219,1123,637,17,342,1,185,70,0,41.58633,-124.05859,Klamath,Del Norte
95555,27639,33333,116,34.8,225000,1250,390,272,0,23,0,20,94,0,41.29519,-123.97774,Orick,Humboldt
95570,34556,51458,384,42.9,452200,2075,2599,2289,0,76,33,147,177,11,41.11375,-124.08037,Trinidad,Humboldt
95573,28171,73051,101,43.2,287900,1278,1285,1125,4,43,0,45,113,31,40.89567,-123.65873,Willow Creek,Humboldt
92509,23112,76568,9920,31.8,369700,1911,82377,38245,2464,691,3033,60945,7486,356,34.00293,-117.44547,Jurupa Valley,Riverside
92539,22633,52857,565,43.2,251400,1405,4433,3047,8,111,218,1117,371,0,33.51579,-116.64432,Anza,Riverside
92543,19086,38686,8295,37.5,159200,1290,37492,23624,4278,292,1012,19410,4264,46,33.69867,-116.97916,Hemet,Riverside
92586,27798,44179,1940,59.6,252500,1454,18615,13577,1286,148,356,4898,1405,71,33.70773,-117.20045,Menifee,Riverside
92592,40026,108412,4891,36.4,487300,2576,86115,56565,3815,539,8824,23260,9068,3,33.511,-117.0242,Temecula,Riverside
92618,56365,112054,4485,33.9,903300,4001,54509,23003,545,81,26838,4963,2648,183,33.66729,-117.73362,Irvine,Orange
92625,114669,162250,771,54.2,2000001,4001,13149,10829,265,30,1154,1104,679,0,33.60229,-117.86551,Corona Del Mar,Orange
92679,78631,182857,1037,44.6,925100,3617,32784,26386,478,77,3241,4552,2247,69,33.65274,-117.56048,Trabuco Canyon,Orange
92688,49064,116557,2704,37.6,638000,2885,44586,32611,919,180,5477,9886,3928,45,33.61737,-117.61131,Rancho Santa Margarita,Orange
92708,39145,89478,4933,44.1,776700,2792,56811,28855,241,114,20638,9834,3924,179,33.71046,-117.95132,Fountain Valley,Orange
92806,32366,77570,4710,33.7,605100,2653,40216,22478,944,565,5573,22371,4985,659,33.83884,-117.87054,Anaheim,Orange
92843,23057,70680,5930,37.5,557000,2241,47823,15468,263,463,20621,22139,2815,511,33.76399,-117.93153,Garden Grove,Orange
92870,38930,100685,4073,37.1,652800,2892,53194,35121,1304,431,8719,20150,4397,367,33.88087,-117.85522,Placentia,Orange
92004,45021,61809,154,62.2,221000,1650,2284,2042,35,0,1,607,20,0,33.18481,-116.15688,Borrego Springs,San Diego
92007,60519,107778,1937,42.1,1123700,3376,11973,9539,54,18,301,2563,1775,0,33.02216,-117.27389,Cardiff By The Sea,San Diego
92037,81845,113676,3578,45.9,1578200,4001,38261,30037,642,54,4464,4080,2643,563,32.85257,-117.25104,La Jolla,San Diego
92020,29038,61830,9245,35.7,551400,2462,57796,42830,3121,231,2597,14951,3128,1119,32.79557,-116.9697,El Cajon,San Diego
92025,27745,56866,9854,34.1,521900,2424,52276,34383,1357,612,2041,29519,6429,719,33.08492,-117.02967,Escondido,San Diego
92027,29210,70009,6113,34.7,472500,2402,57225,37189,1223,412,3405,30926,6290,387,33.13263,-116.98335,Escondido,San Diego
92065,41840,100645,1634,41.2,562000,2653,36460,29779,335,132,817,10551,3150,22,33.04736,-116.84386,Ramona,San Diego
92078,39749,91564,4916,37.1,614500,2899,52810,37950,1180,384,4952,15790,5317,173,33.11834,-117.18554,San Marcos,San Diego
92117,41776,91347,5618,37.7,640100,2624,58651,43227,1602,93,6165,14531,4705,643,32.82493,-117.19972,San Diego,San Diego
92123,42996,90602,3755,34.2,580000,2606,34103,20007,2963,124,6593,7522,3014,311,32.80958,-117.13419,San Diego,San Diego
92139,26557,75576,3006,36,438500,2138,36172,13183,4908,139,10807,13703,4055,416,32.68006,-117.04889,San Diego,San Diego
92173,18615,48967,6188,32.2,382800,1870,31248,22484,326,38,574,29473,3632,1025,32.55552,-117.05114,San Ysidro,San Diego
92223,30840,86068,6050,35.7,336100,2102,56925,35904,5135,758,3962,24484,4581,258,33.9382,-116.98137,Beaumont,Riverside
92230,24154,47500,393,39.2,192900,1525,2363,1354,77,244,58,1023,186,0,33.9088,-116.76879,Cabazon,Riverside
92240,21513,40456,8064,36.8,218600,1435,36214,22397,2873,411,1087,21048,3283,288,33.95291,-116.5194,Desert Hot Springs,Riverside
92254,13872,26328,2133,36.2,155400,1175,8336,1774,0,0,0,8084,537,0,33.54371,-115.99995,Mecca,Riverside
92280,,,0,,,,0,0,0,0,0,0,0,0,34.13963,-114.84652,Vidal,San Bernardino
92313,31146,70200,1088,36.8,355400,1837,12559,7583,520,20,671,6207,1103,107,34.03142,-117.31373,Grand Terrace,San Bernardino
92316,20195,63529,4414,34.9,316900,1650,29176,14672,902,207,414,23608,3607,127,34.0576,-117.39076,Bloomington,San Bernardino
92324,22284,58589,8660,31.8,302800,1599,59628,30163,4243,715,2509,42950,4639,435,34.03398,-117.29008,Colton,San Bernardino
92354,31323,59320,2999,37.4,384700,2001,22991,11281,2166,43,7091,5314,1151,141,34.04933,-117.25119,Loma Linda,San Bernardino
92377,28504,95953,2445,33,397400,2204,20606,10116,3925,116,823,12077,2085,164,34.15234,-117.40412,Rialto,San Bernardino
92507,22031,54701,11028,26,369700,1861,59612,25324,4561,638,8083,31023,4185,630,33.97464,-117.32234,Riverside,Riverside
92548,19920,53643,1150,33.9,154600,1473,8502,6748,32,8,112,5185,239,27,33.76392,-117.10907,Homeland,Riverside
92563,33469,96604,3925,32.5,433100,2453,71394,39662,4254,395,9694,21986,9167,110,33.58435,-117.14458,Murrieta,Riverside
92591,36030,89574,3165,36,467100,2423,41588,27581,2317,90,3457,12444,3987,33,33.53432,-117.1092,Temecula,Riverside
92610,57338,141629,435,35.9,793300,3233,17002,9358,408,55,5711,1772,1223,29,33.68336,-117.65404,Foothill Ranch,Orange
92624,58944,115403,257,51.5,833300,3069,6376,5303,70,0,122,1717,354,28,33.46082,-117.66656,Capistrano Beach,Orange
92629,66506,105014,1356,48.4,945600,3502,27023,22652,631,131,1207,3749,1186,224,33.47678,-117.70459,Dana Point,Orange
92649,56757,101466,2957,45.2,854500,3028,35856,26135,280,215,4105,5739,3658,117,33.72037,-118.04423,Huntington Beach,Orange
92701,17696,53710,11249,29.4,476000,2086,54796,15840,252,261,2926,47357,2064,1328,33.7486,-117.85877,Santa Ana,Orange
92675,50937,105524,2825,41.3,766100,3306,39827,28038,239,132,1988,13499,3171,302,33.49977,-117.65366,San Juan Capistrano,Orange
92683,29003,67104,13987,40.7,624400,2446,90833,29737,1032,304,46518,20861,5102,511,33.75242,-117.99383,Westminster,Orange
92691,47351,118379,2574,43.1,702900,2647,50033,35964,626,167,6248,10736,4544,382,33.61051,-117.66627,Mission Viejo,Orange
92040,34821,83692,3676,40,503300,2504,45392,37618,740,874,1038,9422,2876,151,32.90665,-116.88875,Lakeside,San Diego
92064,49360,115391,2383,41.5,716800,2964,49768,34870,1021,187,6158,8080,3316,123,32.98038,-117.01746,Poway,San Diego
93652,16538,38438,187,36.5,160900,895,563,391,0,0,13,455,15,0,36.59502,-119.90458,Raisin City,Fresno
93033,18224,68542,12569,30.5,420700,1968,84902,57744,1818,1420,5385,72080,9249,262,34.15401,-119.12296,Oxnard,Ventura
93036,27901,78931,5059,33,497800,2364,47126,32008,1003,752,3219,33501,4968,236,34.24911,-119.15977,Oxnard,Ventura
93042,31015,,0,21.7,,,124,48,38,5,0,59,27,7,33.4077,-119.43365,Point Mugu Nawc,Ventura
93043,14201,,0,17.8,,,82,55,0,27,0,82,0,0,34.17001,-119.2026,Port Hueneme Cbc Base,Ventura
93064,,,0,,,,0,0,0,0,0,0,0,0,34.24527,-118.69984,Brandeis,Ventura
93220,,,45,,,,45,45,0,0,0,0,0,0,35.3705,-118.78369,Edison,Kern
93258,12023,35034,571,36.5,125500,918,1366,685,0,0,209,991,130,0,36.05833,-119.15209,Porterville,Tulare
93314,46739,110877,2044,35.5,385600,2283,30805,24252,736,475,1896,8083,1978,39,35.385,-119.23741,Bakersfield,Kern
93410,,,0,,,,0,0,0,0,0,0,0,0,35.30428,-120.65683,San Luis Obispo,San Luis Obispo
93519,,,0,,,,0,0,0,0,0,0,0,0,35.3171,-117.95596,Cantil,Kern
91502,33986,53580,1814,34,713900,2857,11218,6921,357,92,1959,3207,385,247,34.17684,-118.30936,Burbank,Los Angeles
91602,64505,81795,1590,40.3,773300,3029,20339,14189,869,78,2122,3681,1611,464,34.15078,-118.36633,North Hollywood,Los Angeles
91706,21073,68773,9550,35.5,437600,1901,76581,27050,1066,1811,16571,56027,7197,1388,34.09627,-117.96855,Baldwin Park,Los Angeles
91710,27294,86702,7297,37.5,476900,2396,90481,45455,4729,565,12868,49940,8570,455,34.00507,-117.68249,Chino,San Bernardino
91711,47627,100598,1651,40.4,690300,2883,36217,22680,1706,175,5472,8579,3080,568,34.12836,-117.71523,Claremont,Los Angeles
91906,21369,48100,1047,30.5,285000,1926,4327,2996,100,232,8,1637,251,0,32.66241,-116.47255,Campo,San Diego
91913,39780,113415,2436,35.9,536400,2808,51054,24818,3687,481,12412,26729,4766,125,32.62174,-116.98609,Chula Vista,San Diego
91942,36142,66551,5389,35.7,526500,2292,40714,28187,2726,375,3241,9589,4293,660,32.77728,-117.02129,La Mesa,San Diego
91948,25197,,0,27.9,,,115,115,0,0,0,0,0,0,32.87509,-116.47076,Mount Laguna,San Diego
91962,50515,130938,26,52.7,425100,2393,2652,2341,13,11,10,721,98,24,32.79248,-116.48044,Pine Valley,San Diego
91978,33124,84266,1321,39.2,415400,2431,10949,6740,1484,36,693,3270,1142,48,32.71209,-116.94103,Spring Valley,San Diego
91001,51438,104577,2663,45.3,812400,2932,36697,17743,8247,247,2103,11690,2689,891,34.19522,-118.13866,Altadena,Los Angeles
91354,50447,130557,1397,37.3,623300,3076,33039,21214,1970,194,5675,6257,2405,338,34.46039,-118.5528,Valencia,Los Angeles
91010,30366,83051,2555,40,502600,2172,26516,12921,1852,484,3884,15407,2160,489,34.14114,-117.95918,Duarte,Los Angeles
91203,35280,61384,2626,37.2,554400,2318,15794,10804,351,76,2608,3102,675,295,34.15287,-118.26355,Glendale,Los Angeles
91340,21888,64479,3916,35.4,467000,2224,37221,21390,586,410,1081,34159,2476,595,34.28668,-118.43479,San Fernando,Los Angeles
91362,61757,119967,2563,46.6,841100,3229,37085,29876,553,125,3544,6672,2123,124,34.19244,-118.81949,Thousand Oaks,Ventura
91364,58161,110525,1859,41.6,898500,3772,28395,20641,1916,73,2615,3914,1822,217,34.1548,-118.59492,Woodland Hills,Los Angeles
91202,46869,81665,2249,45.3,870200,3055,23399,18157,699,6,3078,3547,743,355,34.18221,-118.26761,Glendale,Los Angeles
91207,51165,85107,1182,46.2,1056900,4001,11318,9603,104,0,1120,901,447,98,34.16872,-118.24477,Glendale,Los Angeles
91208,59930,104866,959,46.9,979100,3727,15146,10910,80,54,1783,1424,2056,106,34.19333,-118.23839,Glendale,Los Angeles
91214,44763,108583,1360,41.8,800300,3092,31668,19192,135,27,8575,3903,2337,192,34.23759,-118.24778,La Crescenta,Los Angeles
91307,52049,119452,1217,44.9,679000,3122,25794,17619,1169,131,4318,4221,1476,219,34.20177,-118.66226,West Hills,Los Angeles
91311,42838,96432,2718,41.7,644600,3055,41811,23586,2905,196,7000,12054,3530,396,34.29011,-118.60776,Chatsworth,Los Angeles
91344,41832,103329,4080,42.5,651300,3008,55694,33564,1754,361,9593,17805,4128,740,34.28991,-118.5047,Granada Hills,Los Angeles
91730,30850,74943,7113,33.9,427400,2132,74843,36412,9949,911,10495,30797,7329,417,34.10023,-117.5811,Rancho Cucamonga,San Bernardino
91764,22575,60941,9065,31.3,383700,1809,57265,24327,3846,770,3366,40127,7708,515,34.07533,-117.60164,Ontario,San Bernardino
91775,41411,94024,1988,42.9,851700,2943,24517,6992,305,136,12885,5575,1277,169,34.11454,-118.08946,San Gabriel,Los Angeles
91790,29534,84505,3370,37.4,565100,2244,44601,15965,1357,589,9942,27204,3807,665,34.06722,-117.93788,West Covina,Los Angeles
91977,28848,71396,7293,35.1,467100,2277,63267,36282,8041,438,5446,28357,5676,762,32.72387,-116.99631,Spring Valley,San Diego
91020,35720,65506,1178,42.4,678100,2758,8785,4957,91,37,1958,1816,1084,65,34.21144,-118.23065,Montrose,Los Angeles
91030,64960,109927,1734,39.5,1113100,3713,25478,12892,1171,57,8164,4838,1994,732,34.11029,-118.15748,South Pasadena,Los Angeles
91104,41082,78285,4771,40.5,779100,2973,37784,19413,2950,174,3779,15104,3618,874,34.16766,-118.12341,Pasadena,Los Angeles
91205,28124,47160,7519,41.3,652600,2860,37549,28871,618,59,4657,8985,1083,792,34.13679,-118.24339,Glendale,Los Angeles
91007,42873,84833,3011,44.7,1043800,3327,33827,9708,773,25,19643,4697,2019,463,34.12842,-118.04818,Arcadia,Los Angeles
91042,32984,66453,3600,45.6,587200,2495,26617,20035,689,2,2213,6153,1518,377,34.30687,-118.25701,Tujunga,Los Angeles
91206,41876,74893,4899,42.3,865200,3117,33781,24875,682,3,5823,4675,1711,400,34.16076,-118.21311,Glendale,Los Angeles
91301,72036,130315,946,44.7,847600,3487,26021,20901,601,5,1619,3417,902,26,34.12314,-118.75685,Agoura Hills,Los Angeles
91320,52082,125093,2811,42,724700,3058,44667,35284,634,53,5012,7092,2829,103,34.17339,-118.94795,Newbury Park,Ventura
91321,32762,74986,4651,33.6,509600,2595,34340,22233,959,219,2509,17187,3887,573,34.36479,-118.4922,Newhall,Los Angeles
91350,40634,113028,3590,36.7,567800,2694,38611,25537,1916,221,4733,11407,3753,480,34.43028,-118.50283,Santa Clarita,Los Angeles
91351,33572,85755,3671,36.6,449500,2339,30746,20538,1363,493,2029,14230,2896,483,34.43269,-118.46276,Canyon Country,Los Angeles
91361,82003,119659,868,51.3,979500,3469,19953,17020,425,32,1417,1690,982,22,34.14016,-118.88398,Westlake Village,Ventura
91601,38857,57411,6300,33.7,710500,3128,35312,23058,2902,92,3314,12052,2679,1425,34.16827,-118.37222,North Hollywood,Los Angeles
91606,26824,54649,7715,36.6,609700,2465,45003,28747,2062,143,2026,23695,3066,1147,34.18655,-118.38867,North Hollywood,Los Angeles
91732,19201,56098,9356,36,486000,2048,61075,19475,555,643,19524,38297,4972,1172,34.07239,-118.01455,El Monte,Los Angeles
91755,28324,59285,3552,44.3,622300,2562,27254,3232,198,288,19417,6135,872,182,34.04832,-118.11496,Monterey Park,Los Angeles
91801,34389,66804,5460,41.2,634000,2524,54161,11179,1563,452,28655,17607,2274,875,34.09093,-118.12776,Alhambra,Los Angeles
91803,29485,66169,4708,41.8,625700,2357,30093,7224,468,116,15004,11849,1453,562,34.0749,-118.14624,Alhambra,Los Angeles
92551,20845,71947,4374,30.2,314800,1697,34441,10283,6414,181,1965,22199,2463,207,33.88148,-117.22521,Moreno Valley,Riverside
92553,17738,54234,14243,29.2,296200,1571,74107,18717,12438,376,3041,49725,2996,224,33.92335,-117.24532,Moreno Valley,Riverside
92567,29759,79962,1462,32.1,368600,1936,10012,6210,98,0,16,6728,519,0,33.82378,-117.10305,Nuevo,Riverside
92570,21024,62764,9427,31.8,299100,1714,60370,23192,2498,211,1382,45465,2411,377,33.78377,-117.31737,Perris,Riverside
92604,46478,112543,2541,41.6,793100,2828,28330,15602,429,29,9812,3737,1449,128,33.6879,-117.7889,Irvine,Orange
92646,50722,102473,3281,47,777300,2733,56568,41792,732,171,7883,7923,3612,202,33.66525,-117.96755,Huntington Beach,Orange
92662,104040,127443,37,62.3,2000001,4001,2710,2638,0,0,50,37,22,0,33.60547,-117.89218,Newport Beach,Orange
92677,62364,119322,4311,46.4,863600,3193,65508,47706,1234,28,7331,10332,5423,222,33.52777,-117.70523,Laguna Niguel,Orange
92804,25480,66936,14189,35.7,574800,2370,88173,48302,2881,573,21662,41084,6060,1119,33.81801,-117.97517,Anaheim,Orange
92821,43425,96700,2529,39.8,664900,2712,39140,25276,742,261,8250,12453,3172,230,33.92997,-117.86986,Brea,Orange
92860,35120,106065,1562,41.6,559700,2686,27219,20536,1144,113,885,9251,1662,83,33.9262,-117.54913,Norco,Riverside
92866,39988,75562,2765,34.9,689100,2753,15428,11819,83,64,991,5392,1028,255,33.78453,-117.84479,Orange,Orange
92879,28385,71817,6542,34.6,431400,2256,49481,24083,3401,507,5519,28712,3219,469,33.87979,-117.5357,Corona,Riverside
92337,25410,84649,3762,30.5,373600,2107,39600,13091,4248,514,2443,27546,4666,286,34.04967,-117.47145,Fontana,San Bernardino
92342,29757,75045,418,39.9,233100,1564,6725,4552,562,0,301,1403,1292,0,34.76078,-117.33795,Helendale,San Bernardino
92345,20023,51712,16685,33.1,254200,1457,83731,65591,3157,734,1722,49537,5321,112,34.36415,-117.30984,Hesperia,San Bernardino
92346,28596,67823,8636,35.1,348700,2076,63395,33553,7648,736,4989,31059,5524,418,34.12629,-117.1792,Highland,San Bernardino
92347,12829,38140,208,52.1,,842,683,533,0,0,5,181,65,0,34.95003,-117.25802,Hinkley,San Bernardino
92359,25766,58250,982,35.8,317400,1672,9779,6432,428,31,495,4030,1286,42,34.08296,-117.07026,Mentone,San Bernardino
92376,19598,59416,13854,30,309700,1674,86719,47065,9389,496,1851,68071,10198,420,34.11053,-117.37997,Rialto,San Bernardino
92399,32321,73647,4678,37.5,348700,1927,55070,43548,612,327,2416,19021,4139,50,34.04469,-117.004,Yucaipa,San Bernardino
92405,16720,41631,8645,29.8,256000,1488,30782,16816,3270,166,977,20387,1965,164,34.14578,-117.30225,San Bernardino,San Bernardino
92706,29143,80051,4305,35.2,642100,2545,39080,14006,596,212,3973,27136,4706,880,33.76602,-117.88174,Santa Ana,Orange
92808,56502,130818,863,44.5,753600,2864,21787,13850,651,3,4870,3390,1740,130,33.85623,-117.74018,Anaheim,Orange
92882,30138,85819,6680,34.1,483800,2393,74742,42848,3857,347,6240,38594,6294,370,33.86367,-117.59989,Corona,Riverside
92887,63593,139750,583,46.7,875800,3509,19362,13694,403,9,3795,3118,918,29,33.88727,-117.73389,Yorba Linda,Orange
92327,15666,,361,40.3,102000,,835,625,159,36,0,127,15,0,34.86632,-116.84347,Daggett,San Bernardino
92307,28007,59084,6438,36.7,277200,1631,38848,28114,3590,363,1071,14772,3764,195,34.59078,-117.14127,Apple Valley,San Bernardino
92003,43732,89201,520,45.6,679300,2628,5123,4248,103,0,48,1558,523,24,33.28701,-117.19977,Bonsall,San Diego
92021,27790,60510,13247,34.9,440600,2383,71183,51422,4234,579,2753,18709,5306,876,32.83514,-116.87462,El Cajon,San Diego
92059,50557,96500,137,36.7,343900,2361,1578,511,17,545,48,665,370,2,33.38277,-117.05193,Pala,San Diego
92024,67275,125458,2559,43.2,977600,3543,50994,43818,197,77,2081,7449,2988,343,33.05716,-117.25651,Encinitas,San Diego
92028,34610,80775,6311,39.5,596100,2682,48736,38567,744,456,1288,19913,3701,127,33.38613,-117.22658,Fallbrook,San Diego
92070,29441,52500,137,47.3,335700,2844,892,375,1,332,2,196,72,0,33.18513,-116.74071,Santa Ysabel,San Diego
92071,35291,85751,4459,39,478900,2389,57207,45213,1179,517,2631,11237,5575,371,32.85045,-116.99479,Santee,San Diego
92101,66292,71077,7027,37.5,618000,3119,42423,29097,3436,282,4090,8721,2695,1608,32.7162,-117.18589,San Diego,San Diego
92110,41503,77579,3474,32.6,627900,2689,30047,22763,1443,111,2147,5850,2438,345,32.76533,-117.19965,San Diego,San Diego
92111,33931,77249,5860,35.7,568300,2358,49874,31772,2006,178,9326,15803,3289,1052,32.8065,-117.16897,San Diego,San Diego
92119,47205,97965,1369,43.8,602300,2490,24915,19709,793,107,1952,3794,1470,138,32.80896,-117.03232,San Diego,San Diego
92127,60629,147827,1166,36.7,869500,3851,50092,26996,477,210,17592,3463,4379,29,33.01913,-117.12339,San Diego,San Diego
92129,51831,126371,3337,39,766700,3072,56608,30025,1506,216,18462,6886,4666,143,32.96354,-117.12622,San Diego,San Diego
92201,25049,44215,12827,38.4,253100,1614,64967,30990,3268,175,1599,46063,5466,169,33.70804,-116.23502,Indio,Riverside
92210,98898,108750,324,66.8,707500,3223,5137,4616,85,0,182,275,112,3,33.70357,-116.33953,Indian Wells,Riverside
92211,53979,66202,2906,65.6,383800,2059,25530,21519,652,170,812,3428,1548,36,33.76593,-116.33241,Palm Desert,Riverside
92241,21637,31478,1560,55.5,91300,1511,7695,6372,83,6,90,3119,420,3,33.84634,-116.28342,Desert Hot Springs,Riverside
92242,21790,42083,185,56,80100,958,1300,1181,6,56,7,213,37,0,34.19019,-114.30755,Earp,San Bernardino
92243,19276,47614,11941,32.4,207400,1573,50112,18526,1336,514,948,42761,6169,108,32.77285,-115.60065,El Centro,Imperial
92251,20570,82394,1385,30.4,252000,1704,24321,15230,1110,86,685,19236,2676,0,32.87129,-115.71804,Imperial,Imperial
92252,24965,42370,2073,40.4,159800,1071,9500,8492,108,6,22,1711,792,0,34.14801,-116.28422,Joshua Tree,San Bernardino
92260,43540,61161,4497,52.9,343400,1980,34553,26936,1016,189,1599,8902,2731,286,33.69841,-116.40519,Palm Desert,Riverside
92266,21145,,0,64.4,,,119,119,0,0,0,29,0,0,33.17507,-114.92594,Palo Verde,Imperial
92267,,,0,,,,26,0,0,0,0,0,26,0,34.29765,-114.20138,Parker Dam,San Bernardino
92270,70085,84891,2149,65.2,533700,2808,18537,15888,499,151,927,2020,532,112,33.76399,-116.42705,Rancho Mirage,Riverside
92276,24482,58814,982,36.3,191600,1200,8158,4967,29,51,39,4894,1881,0,33.83234,-116.38648,Thousand Palms,Riverside
92278,21707,61481,0,21.3,,,5001,3706,329,41,322,1260,542,12,34.23505,-116.05825,Twentynine Palms,San Bernardino
92282,20955,41534,331,40.2,167800,1246,1440,849,76,25,38,735,283,6,33.96253,-116.65829,Whitewater,Riverside
92304,,,5,,,,7,2,0,0,0,5,0,0,34.53062,-115.65933,Amboy,San Bernardino
92305,34617,88846,155,45.3,298600,1701,613,564,1,6,0,130,35,0,34.17018,-116.83231,Angelus Oaks,San Bernardino
92320,28059,61067,883,44.9,244800,1881,9022,6447,48,132,599,2824,985,0,33.9874,-117.05024,Calimesa,Riverside
92338,,,0,,,,0,0,0,0,0,0,0,0,34.78773,-116.25117,Ludlow,San Bernardino
92356,18201,36701,2212,42.2,159300,1117,6199,5005,196,101,120,2106,471,17,34.49633,-116.89265,Lucerne Valley,San Bernardino
92382,27816,66011,572,39.7,271600,1528,4816,3500,31,48,137,943,650,36,34.20604,-117.11276,Running Springs,San Bernardino
92384,117522,147000,0,44,,,18,18,0,0,0,0,0,0,35.98255,-116.1505,Shoshone,Inyo
92411,16210,44129,7490,30.4,219700,1311,26361,12794,3532,68,467,20746,1563,235,34.12214,-117.32291,San Bernardino,San Bernardino
92530,22902,64270,7993,31.5,347000,1858,56442,27239,2753,309,2259,33257,4321,61,33.63386,-117.37949,Lake Elsinore,Riverside
92583,21220,46844,6238,35.3,235300,1574,32077,20579,2419,821,1016,17666,2568,145,33.79662,-116.93188,San Jacinto,Riverside
92585,29854,82217,2091,35.7,362200,2263,23868,11078,2148,292,1389,11726,2009,32,33.74217,-117.16723,Menifee,Riverside
92595,29514,79895,3143,35.7,382500,2178,34034,21367,1062,308,2001,13219,2987,140,33.61638,-117.26028,Wildomar,Riverside
92602,49689,101459,2364,35.2,867300,3325,21666,8311,98,0,11206,2258,1384,54,33.72645,-117.7287,Irvine,Orange
92661,116315,171339,343,41.1,2000001,4001,3825,2942,48,0,36,548,703,0,33.60231,-117.89872,Newport Beach,Orange
92672,57131,89029,2228,46.5,940300,3193,34659,28382,383,130,1125,6200,2220,206,33.3825,-117.5403,San Clemente,San Diego
92673,61097,149882,1109,41.8,925500,4001,30634,24559,343,157,2195,4254,2062,39,33.46611,-117.61204,San Clemente,Orange
92823,51662,147847,181,39.1,875200,3478,4996,1944,35,0,2314,815,497,0,33.92536,-117.80024,Brea,Orange
92835,51666,117208,1831,41.1,772700,3137,26115,16965,403,18,5902,4939,1450,76,33.90171,-117.91529,Fullerton,Orange
92840,27095,75653,5661,36.8,562200,2292,54315,24009,524,69,19403,24282,2866,571,33.78584,-117.93202,Garden Grove,Orange
92881,41447,119023,1938,38,591100,2708,32694,20492,2207,41,3898,10455,2331,179,33.82163,-117.56763,Corona,Riverside
92310,22832,55986,893,22.7,,,9573,5745,1771,41,723,1949,963,0,35.33443,-116.76306,Fort Irwin,San Bernardino
92314,28540,56132,1769,42.9,301200,1640,10684,9778,65,110,65,2574,547,0,34.2576,-116.80075,Big Bear City,San Bernardino
92321,26692,49018,147,47,320700,1685,907,735,7,22,39,299,0,0,34.24748,-117.14694,Cedar Glen,San Bernardino
92054,35441,63355,4441,35.2,635200,2655,40709,29113,1718,805,1642,15812,3538,659,33.19377,-117.35508,Oceanside,San Diego
92056,38283,85047,3678,39.1,552000,2405,53124,38183,1390,687,4136,17209,5774,428,33.20197,-117.28939,Oceanside,San Diego
92114,25560,73090,8291,36.5,439500,2079,69858,25767,13367,691,16580,31132,5576,1434,32.70778,-117.05529,San Diego,San Diego
92115,27796,56137,14805,28.4,551000,2530,63755,37902,7241,475,9275,18637,4618,1528,32.76154,-117.07187,San Diego,San Diego
92120,50755,102597,2633,39.8,623200,2580,29764,22653,1518,57,2166,5457,2192,303,32.79526,-117.07317,San Diego,San Diego
92122,44231,81438,10965,31.1,751700,2959,47842,27563,1009,263,15153,6183,2596,1865,32.85681,-117.21017,San Diego,San Diego
92154,23170,70846,9569,35.3,449500,2242,89886,55411,5416,416,9559,59745,8498,1607,32.578,-116.96621,San Diego,San Diego
92220,25196,44167,6306,43.1,246500,1558,33360,21203,2392,1122,1206,15367,3204,132,33.93992,-116.83935,Banning,Riverside
92233,6954,40587,1101,33.3,147800,1300,7520,2625,1217,93,217,5394,743,0,33.14736,-115.50686,Calipatria,Imperial
92274,14855,26132,4483,40.4,113000,1135,14105,5623,199,43,70,12013,364,4,33.47031,-116.11387,Thermal,Riverside
92308,24104,54738,7498,37.1,260500,1548,42375,31989,3402,205,1142,15819,2889,148,34.42005,-117.15558,Apple Valley,San Bernardino
94063,40207,80313,4278,32.6,931400,3123,36110,15838,828,577,2958,24176,4491,1037,37.49367,-122.20823,Redwood City,San Mateo
94535,22503,70943,198,22.3,,,3407,2282,407,0,168,534,328,0,38.27048,-121.93851,Travis Afb,Solano
94561,34247,102911,3135,35.3,469300,2385,43031,25209,3489,471,3146,13827,4756,608,37.99311,-121.69172,Oakley,Contra Costa
94567,31970,53813,183,44.6,348100,2054,869,623,0,3,0,504,42,0,38.66342,-122.4349,Pope Valley,Napa
94585,30809,81683,2960,34.9,380200,2082,29351,11586,5899,205,5499,8000,3463,372,38.19061,-121.94216,Suisun City,Solano
94588,68053,157203,1876,40,982900,3599,36324,15880,687,280,16188,3324,2447,2060,37.73801,-121.88178,Pleasanton,Alameda
94592,55072,171000,214,36.2,642000,3291,1038,426,101,0,423,94,41,57,38.12009,-122.3117,Vallejo,Solano
94607,45622,60181,5629,35.9,621200,2830,25723,7328,7810,293,6699,3502,1812,5116,37.80721,-122.30024,Oakland,Alameda
94611,85733,136538,2033,43.6,1153300,4001,39042,25867,2604,136,6097,2176,3423,3902,37.83191,-122.21592,Oakland,Alameda
94709,46359,75721,2245,30.4,1017600,3723,12411,7247,271,285,3607,1358,597,1458,37.87835,-122.26613,Berkeley,Alameda
94805,46117,89443,796,41.5,567600,2208,14292,6786,1810,16,2538,4237,1130,1087,37.94215,-122.32364,Richmond,Contra Costa
91786,28871,65542,7352,33.5,459100,2108,54165,31459,3942,507,3713,27367,5108,759,34.10525,-117.66206,Upland,San Bernardino
91789,40503,105848,2657,45.3,766400,2733,43531,8489,1473,241,28107,8965,1908,622,34.01858,-117.85408,Walnut,Los Angeles
91791,34630,87147,2901,40.9,631200,2628,33314,11769,1243,327,9259,17158,2728,489,34.06134,-117.89425,West Covina,Los Angeles
91360,44291,94149,2977,43.1,690300,2743,42663,34750,614,262,3223,8941,2506,125,34.21475,-118.87735,Thousand Oaks,Ventura
91040,41505,92280,1645,46.5,601500,2737,20606,15534,153,81,2529,4276,1069,85,34.25861,-118.33468,Sunland,Los Angeles
91352,23113,58696,6372,36,532300,2428,46027,27091,809,104,2415,33042,4593,875,34.23183,-118.36596,Sun Valley,Los Angeles
91101,49776,72144,4715,35.6,581900,2595,21920,10538,1064,230,5899,6252,2112,999,34.14671,-118.13895,Pasadena,Los Angeles
90014,45375,36429,3620,40.7,581400,2466,9126,3874,2111,49,1949,1684,407,659,34.04302,-118.25182,Los Angeles,Los Angeles
90026,40734,67435,11010,35.2,899100,2847,67657,27933,2508,616,9721,34164,5045,4674,34.07883,-118.2637,Los Angeles,Los Angeles
90033,17123,43646,12772,32,483700,2085,49695,22411,929,559,2247,45089,2313,2613,34.05117,-118.21165,Los Angeles,Los Angeles
90038,30619,48786,6080,34.4,903500,2862,28592,12971,1919,281,1885,14466,2204,2920,34.08882,-118.32671,Los Angeles,Los Angeles
90040,21133,54567,1476,37.7,424500,1946,12363,7278,105,367,112,11742,810,219,33.99318,-118.1489,Los Angeles,Los Angeles
90044,17126,39434,28398,31,434100,2102,99980,25642,31627,474,658,66053,7381,3687,33.95253,-118.29194,Los Angeles,Los Angeles
95355,32318,67205,4937,38.1,330200,1835,59272,41470,3650,696,5205,18872,4295,218,37.6727,-120.94717,Modesto,Stanislaus
95450,48734,62679,0,57.5,625000,2875,223,215,0,0,5,9,0,0,38.5229,-123.21508,Jenner,Sonoma
95589,24159,39665,279,54.8,406300,2226,1140,1140,0,0,0,9,0,0,40.07927,-123.98596,Whitethorn,Humboldt
92410,15587,41060,13646,28.8,186400,1381,44685,22026,5272,162,1482,33436,2150,472,34.10655,-117.29574,San Bernardino,San Bernardino
92503,27175,75415,10232,33.7,391600,2076,93032,50916,4117,751,6729,56439,5839,1102,33.88308,-117.45222,Riverside,Riverside
92532,33000,92288,3320,31.1,377900,2383,25333,14527,2073,22,2802,9122,2013,40,33.69052,-117.30241,Lake Elsinore,Riverside
92555,27976,91839,3881,33.3,375700,2165,46566,18488,8999,123,3216,24144,2830,82,33.9133,-117.10867,Moreno Valley,Riverside
92869,51621,121712,2026,40.5,733100,2927,36259,26052,382,99,4371,12805,2117,300,33.79479,-117.7621,Orange,Orange
92124,41049,94485,2357,32.4,662100,2619,32754,22168,2153,94,4223,5949,2865,98,32.82823,-117.08528,San Diego,San Diego
92225,17859,43822,3532,37.2,154900,1324,22520,10983,2250,175,467,12748,2557,94,33.71642,-114.65606,Blythe,Riverside
92231,17169,42739,7959,34.7,220000,1414,39884,27242,88,116,364,38831,3706,299,32.68751,-115.56433,Calexico,Imperial
92234,28152,50350,10082,40.6,302500,1760,54812,37581,1205,730,4037,31056,3341,265,33.81386,-116.46663,Cathedral City,Riverside
92253,47914,76158,5828,48.5,405200,2154,41573,30459,797,99,1857,15074,3519,92,33.65562,-116.28785,La Quinta,Riverside
92259,24803,35739,26,59.7,,,89,89,0,0,0,0,0,0,32.73478,-115.94632,Ocotillo,Imperial
92262,45753,55757,5422,53.3,422300,2098,28463,21949,2151,139,1280,8389,1114,203,33.86287,-116.55736,Palm Springs,Riverside
92273,12210,32961,595,29.5,165000,1246,1847,1384,30,0,0,1655,297,0,32.80798,-115.69592,Seeley,Imperial
92275,18380,24750,609,45.4,151300,1046,2531,1388,43,30,76,1391,239,0,33.20783,-115.88084,Salton City,Imperial
92284,26975,45511,5666,42.1,189000,1363,25791,19780,1114,445,707,6937,2343,108,34.16013,-116.42474,Yucca Valley,San Bernardino
92285,18206,35767,592,59.4,156100,958,2440,2190,29,76,20,314,116,0,34.33762,-116.51364,Landers,San Bernardino
92332,79303,,0,61,,,94,94,0,0,0,0,0,0,34.90728,-115.36409,Essex,San Bernardino
92026,34721,76534,4868,36.8,497700,2554,50461,35244,753,568,4264,19962,4256,322,33.2111,-117.11157,Escondido,San Diego
94021,103953,246133,54,49.3,742600,,574,511,0,0,0,63,0,0,37.25028,-122.24958,Loma Mar,San Mateo
94022,132969,250001,693,47.6,2000001,4001,19701,11706,121,21,6432,849,1176,147,37.35534,-122.14494,Los Altos,Santa Clara
94123,131446,179143,1116,33.8,2000001,4001,26074,20978,233,56,2687,1988,1565,5454,37.80112,-122.43645,San Francisco,San Francisco
94521,47834,104141,2468,41.1,620400,2613,42891,28919,1583,119,6075,6661,4679,1988,37.95293,-121.96971,Concord,Contra Costa
94587,43336,120772,4199,39.8,812000,2949,75067,15248,3413,386,41510,14813,4839,2413,37.59142,-122.06993,Union City,Alameda
94060,65889,113056,76,42.2,865100,3444,1098,681,3,0,24,309,175,0,37.22297,-122.33572,Pescadero,San Mateo
94025,89007,169352,2428,38.4,2000001,4001,43996,29432,1588,344,6525,7230,2714,1340,37.45087,-122.1829,Menlo Park,San Mateo
94963,72349,146563,0,65.6,892900,4001,195,195,0,0,0,42,0,0,38.00765,-122.66484,San Geronimo,Marin
94085,69491,150915,1510,32.2,1142800,3559,23592,7143,327,527,10392,6919,1681,1104,37.38862,-122.01793,Sunnyvale,Santa Clara
94158,101580,160236,993,34.1,1176100,4001,9231,3892,549,92,3505,1226,632,1747,37.77116,-122.39153,San Francisco,San Francisco
94503,35496,108638,1432,37.1,518200,2542,20295,6676,1509,201,7068,5948,2336,250,38.19454,-122.23042,American Canyon,Napa
94505,52857,128865,1529,42.3,640100,2938,15974,12631,878,46,1034,2676,861,73,37.86638,-121.5868,Discovery Bay,Contra Costa
94516,46527,102917,7,58.1,635700,3197,233,202,0,1,0,2,30,15,37.82748,-122.16629,Canyon,Contra Costa
94528,123780,250001,0,66.6,2000001,4001,804,804,0,0,0,0,0,0,37.84149,-121.95819,Diablo,Contra Costa
94531,35172,104275,3832,36.6,470900,2321,42163,13760,10709,152,7700,10356,4808,1649,37.95665,-121.77777,Antioch,Contra Costa
94534,49908,115561,1108,41.4,548400,2628,38471,19283,4832,310,8163,6711,3811,348,38.24112,-122.12142,Fairfield,Solano
94548,80985,150492,12,47.4,886400,2750,248,189,0,0,0,125,45,0,37.97481,-121.65265,Knightsen,Contra Costa
94551,51949,119087,2239,37.8,776500,3216,48151,27615,817,190,11629,11801,4529,1612,37.75902,-121.76026,Livermore,Alameda
94573,33103,,0,20.8,,,70,70,0,0,0,58,0,0,38.45726,-122.42348,Rutherford,Napa
94575,4497,,21,19.8,,,1176,695,47,5,193,302,164,14,37.84235,-122.11012,Moraga,Contra Costa
94582,70550,186021,2057,40.7,1108200,4001,44721,13411,1597,69,26439,2397,2460,1903,37.76357,-121.91469,San Ramon,Contra Costa
94597,63912,121067,1454,39.1,756800,3151,23263,14808,676,91,5206,3053,1707,3315,37.91768,-122.0718,Walnut Creek,Contra Costa
94613,3802,,54,19.6,,,868,441,17,2,225,270,116,16,37.78075,-122.18308,Oakland,Alameda
94720,4391,,0,19.3,,,2829,1024,80,32,1416,447,144,98,37.87185,-122.25226,Berkeley,Alameda
94957,109891,250001,36,52.8,2000001,4001,1185,1015,7,0,87,106,76,65,37.96343,-122.56174,Ross,Marin
95585,18158,21875,167,48,350000,1667,420,356,22,33,5,44,0,0,39.85872,-123.66619,Leggett,Mendocino
95615,28120,58909,42,40.8,604400,1410,877,559,0,0,8,297,269,146,38.31113,-121.54595,Courtland,Sacramento
95692,34591,76071,144,41.1,284000,1811,4924,4165,8,29,91,855,541,5,39.04699,-121.40471,Wheatland,Yuba
95742,42219,133710,743,35.7,444400,2678,12643,6987,1195,35,3109,1427,1122,51,38.5735,-121.19854,Rancho Cordova,Sacramento
95961,24359,60348,3689,31.7,276400,1739,28929,20154,885,534,2239,10521,3049,23,39.03343,-121.55754,Olivehurst,Yuba
95121,36320,111105,3260,40.4,793000,2800,38258,7594,1690,429,23248,8888,1851,488,37.30463,-121.80981,San Jose,Santa Clara
95461,38016,52314,308,55.1,233400,1526,2714,2537,22,4,0,277,53,4,38.762,-122.59314,Middletown,Lake
95542,22987,27534,517,45.2,369600,2198,2262,2155,2,18,9,92,61,0,40.08074,-123.77369,Garberville,Humboldt
95543,16964,32500,139,54,258500,,629,526,6,20,0,54,72,0,41.88847,-123.80238,Gasquet,Del Norte
95547,35005,55521,207,57.5,485700,1646,1051,1026,0,6,0,8,18,0,40.56952,-124.07751,Hydesville,Humboldt
95549,33115,74931,92,36.8,480600,1919,1088,947,1,3,18,17,113,0,40.65838,-123.89485,Kneeland,Humboldt
95554,23284,48409,72,60.9,,,419,397,0,0,0,0,22,0,40.27573,-123.78414,Myers Flat,Humboldt
95558,41176,65875,93,51.3,669000,1669,409,337,0,17,24,17,20,0,40.32673,-124.24017,Petrolia,Humboldt
95565,21489,32955,168,39.7,280000,1646,662,521,0,11,2,57,97,0,40.45723,-124.01099,Scotia,Humboldt
95568,25526,,60,54.9,313200,,211,158,16,24,0,72,7,0,41.48454,-123.48543,Somes Bar,Siskiyou
95605,27006,60309,2465,31.8,286000,1612,14468,9049,532,166,875,6557,1964,122,38.59289,-121.53929,West Sacramento,Yolo
95618,49518,100876,5422,31.9,678800,2898,27238,17614,617,132,6202,4454,1984,790,38.54348,-121.6917,Davis,Yolo
95665,33731,62688,194,51.1,297900,1836,3729,3112,13,22,74,863,361,1,38.39587,-120.65238,Pine Grove,Amador
95677,40007,88897,2261,37.7,468400,2361,26872,21220,596,87,1704,3741,1950,209,38.79298,-121.23133,Rocklin,Placer
95691,37132,80916,5984,35,389400,2157,39198,24978,1911,230,5379,10897,4355,375,38.62394,-121.58272,West Sacramento,Yolo
95625,62546,85532,9,46.2,,,175,175,0,0,0,44,0,0,38.35728,-121.90861,Elmira,Solano
95626,28937,76607,762,40.3,365800,1891,5879,4890,157,119,285,1086,195,10,38.73378,-121.48898,Elverta,Sacramento
95627,30795,81563,504,29,346800,1713,4516,3993,0,0,78,2183,229,59,38.72936,-122.00959,Esparto,Yolo
95632,31700,77351,2871,37.9,377500,1909,32039,23520,372,200,1293,13997,2830,68,38.27705,-121.26128,Galt,Sacramento
95651,50037,,42,48.5,597400,1688,480,367,0,96,8,16,9,5,38.82088,-120.93515,Lotus,El Dorado
95653,13852,42985,83,53.4,166300,,502,230,1,0,1,497,0,0,38.69151,-121.97723,Madison,Yolo
95655,34947,94028,444,34.1,395900,2289,4334,2590,328,13,644,505,511,35,38.54976,-121.27898,Mather,Sacramento
95215,19135,49758,4583,37.1,275400,1551,25473,15772,1142,416,540,15910,3165,52,37.9444,-121.15276,Stockton,San Joaquin
95223,47455,61331,211,64.4,315500,1683,2602,2485,0,0,66,78,17,25,38.4644,-119.85939,Arnold,Alpine
95224,37791,,0,76.6,268800,1480,195,156,0,39,0,39,0,0,38.22706,-120.32562,Avery,Calaveras
95303,71814,115500,228,41.4,546200,2086,1019,641,0,0,72,401,27,0,37.4714,-120.67744,Ballico,Merced
95318,32828,45988,0,39.6,227700,,271,271,0,0,0,0,0,0,37.66618,-119.8064,El Portal,Mariposa
95321,42256,55966,349,62.6,298600,2052,3544,3214,0,97,86,191,96,0,37.97719,-119.75012,Groveland,Tuolumne
95327,26263,43313,1209,40.3,255800,1881,8542,6277,709,224,133,2036,603,0,37.84912,-120.4858,Jamestown,Tuolumne
95340,29200,56941,6289,32,286700,1744,36402,21393,1421,452,2718,17817,2861,126,37.34128,-120.40658,Merced,Merced
95348,21362,51340,7907,28.8,254300,1551,34302,15613,2322,571,6250,15614,2587,425,37.41525,-120.4979,Merced,Merced
95571,25512,,0,58.4,338000,2190,124,124,0,0,0,0,0,0,40.36495,-123.94157,Weott,Humboldt
95240,25660,55933,8647,33,329800,1757,49439,26480,515,244,6148,21890,11740,220,38.1177,-121.1627,Lodi,San Joaquin
95366,38360,86116,1899,40.3,478000,2216,18728,15839,82,66,515,5301,1814,28,37.76223,-121.12574,Ripon,San Joaquin
95367,26456,70248,3163,33.3,320500,1709,24976,16852,453,198,1490,14491,3165,54,37.73089,-120.94669,Riverbank,Stanislaus
90057,19549,41748,13464,33.8,528500,2464,49771,16866,2416,757,9352,33853,1925,9427,34.06205,-118.27704,Los Angeles,Los Angeles
90067,106246,111299,146,66.5,1343800,4001,2560,1822,53,0,500,122,101,12,34.0565,-118.41373,Los Angeles,Los Angeles
90068,90292,87327,2082,41.3,1409000,4001,21590,17224,1215,15,1324,2453,1184,559,34.12794,-118.32914,Los Angeles,Los Angeles
90069,95875,90546,1904,43.1,854400,3637,20035,16380,493,45,1571,1650,1155,241,34.09401,-118.38154,West Hollywood,Los Angeles
90210,115363,152037,1090,49,2000001,4001,19229,16686,264,24,931,1159,1145,53,34.10251,-118.41505,Beverly Hills,Los Angeles
90221,17210,53683,9063,31.6,381300,1889,50928,14691,10631,165,643,38811,4788,1058,33.88542,-118.20614,Compton,Los Angeles
90232,58930,98116,1077,38.3,1151400,3968,14921,8997,807,27,3220,3221,1147,480,34.01859,-118.39157,Culver City,Los Angeles
90240,37177,87107,1771,36.9,623100,2702,26801,15256,733,385,1503,19712,2315,234,33.9564,-118.11803,Downey,Los Angeles
90247,26630,61234,7263,37.8,498700,2189,47507,10932,7898,342,11952,23853,3128,737,33.89159,-118.29735,Gardena,Los Angeles
90274,94057,181776,1001,50.8,1689100,4001,24541,16946,690,7,5614,1568,1196,37,33.77732,-118.3684,Palos Verdes Peninsula,Los Angeles
90293,78637,104814,663,41.2,837200,2987,12915,9482,770,70,1343,1894,768,48,33.95071,-118.43745,Playa Del Rey,Los Angeles
90301,22414,51498,7018,35.8,491000,2045,39320,10680,11839,901,1132,23379,3618,1296,33.95647,-118.35863,Inglewood,Los Angeles
90504,40697,92636,2846,41.7,663000,2706,32703,11946,1260,136,13226,7922,2974,262,33.86693,-118.33135,Torrance,Los Angeles
90602,23883,54752,3316,33.7,567300,2438,25426,10230,563,184,1278,18321,1500,347,33.97317,-118.02341,Whittier,Los Angeles
90631,36282,86973,6664,37.9,607300,2489,68748,37270,1380,546,9036,38527,5194,623,33.94266,-117.95126,La Habra,Orange
90814,50090,81925,1715,37.2,723400,2657,18714,13628,1825,125,1398,5431,935,322,33.7716,-118.14351,Long Beach,Los Angeles
90815,45056,100034,3696,36.6,668100,2767,41854,29362,3021,255,5207,8950,2387,358,33.79572,-118.11592,Long Beach,Los Angeles
90071,69621,61895,7,41.6,,,152,81,32,0,39,41,0,32,34.05239,-118.25518,Los Angeles,Los Angeles
90230,51165,87469,3966,41.1,812800,2889,33135,18603,3141,123,4879,10631,3346,571,33.99691,-118.39487,Culver City,Los Angeles
90249,28789,65397,2860,40.7,537700,2326,26192,7782,7052,630,3969,10235,2591,441,33.90152,-118.31707,Gardena,Los Angeles
90808,48772,111163,2287,42.9,667800,2788,39602,27237,2273,159,4360,9142,3623,225,33.82406,-118.11236,Long Beach,Los Angeles
90680,27885,69212,4432,36.1,445400,2172,30807,14027,564,228,8674,14769,2263,383,33.80115,-117.99532,Stanton,Orange
90701,25984,74523,1223,38.5,601100,2552,16500,4368,769,126,6745,5933,1007,42,33.8676,-118.08055,Artesia,Los Angeles
90802,42322,60939,6366,36,438700,2404,39165,21182,6205,187,3477,13575,2658,1200,33.75035,-118.21143,Long Beach,Los Angeles
90805,21466,53299,17843,31.8,439200,2092,95094,23066,18030,1289,10242,57136,7563,1737,33.86494,-118.18051,Long Beach,Los Angeles
90004,35369,52775,9951,35.3,1144500,3747,61105,20483,2507,256,15318,29287,3001,5465,34.07624,-118.31101,Los Angeles,Los Angeles
90006,18832,37375,15317,34.5,672700,2504,58560,19758,1922,672,10802,42591,3908,8022,34.04807,-118.29411,Los Angeles,Los Angeles
90032,24509,59723,8320,35,556100,2166,47857,15728,1023,736,5464,37217,3134,1369,34.0793,-118.17835,Los Angeles,Los Angeles
90042,35169,73152,7477,36.9,673700,2567,60509,27097,1503,1948,8155,36133,6028,2605,34.11475,-118.192,Los Angeles,Los Angeles
90043,31269,56285,7828,40.1,621900,2517,46358,8592,28122,159,700,13436,2783,1834,33.98876,-118.33519,Los Angeles,Los Angeles
90047,26833,58830,7896,38.1,473300,2185,51057,8777,29335,402,441,19097,2713,1031,33.95456,-118.30899,Los Angeles,Los Angeles
90049,102771,133032,2574,39.6,2000001,4001,36610,30175,449,20,2973,3041,2526,374,34.08749,-118.48976,Los Angeles,Los Angeles
90212,77018,86496,1229,46.9,2000001,4001,11878,9521,160,39,1265,586,717,172,34.06208,-118.40173,Beverly Hills,Los Angeles
90245,58570,115846,834,36.9,1180000,3819,16575,11626,790,25,1645,2639,1810,77,33.91709,-118.40161,El Segundo,Los Angeles
90277,70523,104859,1302,44.1,1125800,3462,34494,25241,1161,117,3983,4433,3030,197,33.83099,-118.38441,Redondo Beach,Los Angeles
90290,69163,129000,283,45.6,1070800,4001,5200,4598,112,0,272,405,158,14,34.09725,-118.6125,Topanga,Los Angeles
90302,27231,54432,4775,36.6,531700,2200,29367,7402,12187,198,797,13896,3196,866,33.97472,-118.35565,Inglewood,Los Angeles
90503,46286,97688,2772,40.7,820600,3021,44354,18153,1349,87,18840,6680,3677,405,33.84089,-118.3538,Torrance,Los Angeles
90605,27023,77482,4466,35.6,499100,2352,41162,17594,566,609,1963,30879,2750,318,33.95209,-118.02085,Whittier,Los Angeles
90606,25437,74717,3615,36.8,469800,2059,32631,12436,421,384,645,28362,2540,378,33.97742,-118.0661,Whittier,Los Angeles
90703,43476,108844,2129,45,714600,2680,49633,9107,4061,67,29641,7104,3676,407,33.86797,-118.06874,Cerritos,Los Angeles
90732,49453,101738,1308,48.2,630700,2877,22561,14700,1141,4,2819,7542,1926,113,33.74319,-118.31048,San Pedro,Los Angeles
90740,58244,72226,1239,59.1,410700,3447,24288,19356,538,74,2542,3004,1360,96,33.75461,-118.07129,Seal Beach,Orange
90742,83315,81528,10,53.5,1135400,4001,617,574,0,0,12,67,19,0,33.71834,-118.07174,Sunset Beach,Orange
90021,30012,21625,1384,39.1,889700,1961,3285,1336,551,65,193,1746,240,286,34.02909,-118.23889,Los Angeles,Los Angeles
90059,16245,44839,10209,28.4,379800,1839,42311,11854,11907,310,128,29139,3119,1082,33.92709,-118.2491,Los Angeles,Los Angeles
90280,18936,55084,14685,32.3,438100,1942,94905,52312,460,904,787,90487,8322,1816,33.94453,-118.19256,South Gate,Los Angeles
90743,53034,142000,34,59.2,2000001,3250,256,180,6,0,32,34,24,0,33.72963,-118.08594,Surfside,Orange
90405,70938,96352,2622,40.7,1474000,3878,27509,20469,880,148,2253,4359,2941,482,34.01208,-118.4679,Santa Monica,Los Angeles
90706,25477,63848,9804,34.7,483100,2259,76339,23736,9453,316,9282,43349,6052,743,33.88802,-118.12709,Bellflower,Los Angeles
90018,23436,49644,11398,34.5,648500,2385,52444,14828,15256,282,2931,30040,3364,2777,34.0286,-118.31737,Los Angeles,Los Angeles
90272,136439,199598,887,46.7,2000001,4001,21848,18953,73,19,1617,887,1092,74,34.08066,-118.54459,Pacific Palisades,Los Angeles
90291,88538,99496,2994,39.2,1793300,4001,27556,21753,1488,88,1179,5046,1654,495,33.99447,-118.46315,Venice,Los Angeles
90303,25130,62826,3146,34.8,564000,2118,23961,6350,8975,228,440,13607,1295,547,33.93601,-118.33112,Inglewood,Los Angeles
90403,83825,111611,2017,43,1441800,3949,24359,19292,395,20,2135,2233,1929,454,34.03164,-118.48975,Santa Monica,Los Angeles
90502,37752,85515,1663,41.9,490900,2162,18527,5901,1221,22,6703,7118,825,91,33.83497,-118.29291,Torrance,Los Angeles
90603,37294,104028,1071,40.1,620900,2625,20780,12985,238,155,1362,11514,2052,96,33.94487,-117.99239,Whittier,Los Angeles
90604,28554,77898,2943,34.3,561200,2366,40545,18779,455,362,2993,27646,2451,121,33.93012,-118.01226,Whittier,Los Angeles
90007,19179,30530,13792,24.9,671100,2298,42380,15908,4509,273,7747,22081,3303,2829,34.02819,-118.28486,Los Angeles,Los Angeles
90015,39297,48743,6535,31.5,705900,3193,23900,9002,1607,198,4202,13927,1525,2436,34.03932,-118.26625,Los Angeles,Los Angeles
90003,14241,42220,20636,28.6,394200,1943,74117,21165,13700,489,247,59098,5983,3339,33.96409,-118.27368,Los Angeles,Los Angeles
90020,33241,50207,6295,35.6,661200,2636,39366,8516,2667,485,18413,13015,1237,3889,34.06638,-118.30986,Los Angeles,Los Angeles
90023,15656,45991,10374,30.7,449000,1894,46517,21902,521,558,320,44780,2514,2176,34.02264,-118.19986,Los Angeles,Los Angeles
90027,53851,71651,5908,37.9,1241400,4001,45996,29836,1232,59,5909,11039,2885,2284,34.12515,-118.29049,Los Angeles,Los Angeles
90039,56757,88104,2742,39.1,899000,3115,29966,17239,347,757,4923,10474,2369,757,34.11242,-118.26153,Los Angeles,Los Angeles
90045,57627,110535,2619,35.4,1061200,3281,39795,24997,4097,152,5458,7361,3557,263,33.95302,-118.40028,Los Angeles,Los Angeles
90046,68384,72457,5472,38.3,1193400,3898,49828,37331,2458,215,3194,7255,4562,1521,34.10752,-118.36575,Los Angeles,Los Angeles
90077,142980,222982,274,47.8,2000001,4001,8328,6755,151,0,669,359,661,26,34.10536,-118.45591,Los Angeles,Los Angeles
90260,26933,70389,3746,35.4,575500,2422,34540,14959,2777,264,4707,20391,3926,453,33.88768,-118.34952,Lawndale,Los Angeles
90262,17243,57236,10778,31.1,422200,1999,69369,34426,6064,721,593,60625,5136,1355,33.92384,-118.20133,Lynwood,Los Angeles
90263,13524,,0,19.7,,,1813,1069,136,0,403,355,137,40,34.03919,-118.70809,Malibu,Los Angeles
90278,60814,126979,1614,38.7,926500,3541,40090,25682,1454,147,6919,6732,3920,210,33.87362,-118.37028,Redondo Beach,Los Angeles
90211,68101,96111,952,43.2,2000001,4001,9211,6676,310,0,1460,819,300,147,34.06498,-118.38293,Beverly Hills,Los Angeles
90056,54135,84387,930,46.2,1058500,3351,8058,1509,5213,26,321,998,875,85,33.99361,-118.36884,Los Angeles,Los Angeles
90058,12672,27708,1277,24.4,325600,2018,3003,1981,187,0,3,2395,16,105,34.00264,-118.21452,Los Angeles,Los Angeles
90062,21992,52661,5838,36,496500,2215,35908,9645,10446,358,711,23515,1863,2091,34.0035,-118.30904,Los Angeles,Los Angeles
90220,20143,61279,10480,32.5,358700,1822,51042,13946,15782,300,534,32792,3830,951,33.88058,-118.23591,Compton,Los Angeles
90222,17324,57101,6955,29.3,384900,1962,34547,12589,8225,58,316,25439,2409,408,33.91213,-118.23721,Compton,Los Angeles
90255,16847,49366,14999,32.7,428700,1900,74390,42188,684,853,400,72352,4771,2518,33.97697,-118.21725,Huntington Park,Los Angeles
90265,106310,163909,1565,49.6,2000001,4001,18028,14685,193,45,733,2088,1771,115,34.07282,-118.84995,Malibu,Los Angeles
90266,93779,153926,1114,42.9,2000001,4001,35064,26523,176,84,5155,2847,2416,113,33.88968,-118.39705,Manhattan Beach,Los Angeles
90292,88568,121021,2602,39.8,1053700,3918,23931,17899,1979,0,1989,1963,1447,191,33.97865,-118.44707,Marina Del Rey,Los Angeles
90304,17904,47612,5399,31.6,537400,2084,26584,11039,1118,143,1297,23305,2218,750,33.93736,-118.35879,Inglewood,Los Angeles
90505,46882,95113,2256,42.5,882600,3126,36820,17291,964,308,13818,5253,2855,369,33.80904,-118.34775,Torrance,Los Angeles
90621,27471,72000,4670,35.9,617100,2453,35448,13827,1236,219,12918,15498,1494,509,33.87396,-117.99346,Buena Park,Orange
90640,25673,62521,7616,36.9,520200,2308,62873,31776,591,497,8423,49708,4620,1764,34.01506,-118.111,Montebello,Los Angeles
90650,25151,77425,10102,35.3,461000,2119,104524,38909,5686,480,13825,70914,6546,1247,33.90703,-118.08249,Norwalk,Los Angeles
90002,14296,42245,15103,28.5,378000,1915,53402,20613,9157,1415,843,43112,2904,2273,33.94906,-118.24679,Los Angeles,Los Angeles
90005,25990,42398,9590,35.4,889600,3306,38885,9625,1906,241,13017,19214,3478,5455,34.05939,-118.30909,Los Angeles,Los Angeles
90011,14354,44616,29775,29.6,418300,2072,110750,40035,7505,1419,532,101144,6635,7629,34.00689,-118.25861,Los Angeles,Los Angeles
93646,13202,27909,4638,26.8,171300,1137,11240,7071,117,15,0,10409,1243,0,36.63218,-119.28938,Orange Cove,Tulare
93647,14775,41402,4150,28.6,165500,1317,11485,6382,234,688,833,9838,728,0,36.58449,-119.17773,Orosi,Tulare
93653,39470,83462,135,48.9,412400,1650,1304,1113,0,39,21,161,67,0,37.24769,-119.91882,Raymond,Madera
93657,25029,60689,7691,33.4,294200,1685,36557,25571,34,543,1822,25076,2090,24,36.78853,-119.4378,Sanger,Fresno
93703,16168,32170,10297,30.2,165800,1239,32102,16830,2941,329,3924,19142,2528,512,36.76884,-119.76249,Fresno,Fresno
93725,17716,52477,6105,28.7,216000,1373,27167,14486,1185,463,4439,17851,1049,0,36.62667,-119.73501,Fresno,Fresno
93436,27168,63966,7518,34.7,357500,1965,55727,34620,1815,1117,1994,29714,7738,960,34.60888,-120.4002,Lompoc,Santa Barbara
93441,61317,94464,27,55.2,956400,3250,861,808,0,0,0,185,0,0,34.73296,-120.09721,Los Olivos,Santa Barbara
93452,26255,49194,28,33.6,281100,1884,550,540,0,0,10,406,0,0,35.71078,-121.20396,San Simeon,San Luis Obispo
93518,33718,46250,103,63,196200,1507,833,731,14,27,14,115,29,0,35.37675,-118.47314,Caliente,Kern
93522,18528,,0,64.3,32000,,90,53,0,0,0,0,37,0,36.29836,-117.59681,Darwin,Inyo
93528,,,48,,,,48,48,0,0,0,0,0,0,35.37194,-117.64193,Johannesburg,Kern
93207,19567,20500,62,62.5,162500,1479,216,179,0,29,8,0,0,0,35.88721,-118.63153,California Hot Springs,Tulare
93544,27536,38523,289,56.3,225000,2008,1086,877,136,0,0,230,33,0,34.49063,-117.75505,Llano,Los Angeles
93727,25087,62413,17395,31.4,279100,1695,84656,41997,4198,672,21929,37185,7762,184,36.75119,-119.69736,Fresno,Fresno
93204,12128,49781,2829,29.4,144800,876,13033,5447,571,96,44,11339,1280,0,35.90819,-120.06776,Avenal,Kings
92066,35644,68250,62,55.3,362500,2219,350,334,10,6,0,6,0,0,33.21541,-116.53583,Ranchita,San Diego
92091,88643,165132,116,57.1,972600,4001,1311,896,0,0,269,18,128,16,33.03432,-117.19704,Rancho Santa Fe,San Diego
92103,63346,78338,3003,41.1,817300,3064,34246,27165,1068,47,2575,6273,2241,731,32.74782,-117.16738,San Diego,San Diego
92113,17948,43958,11511,27.9,388100,1831,58231,39546,6201,237,2298,43416,3413,2580,32.69591,-117.12012,San Diego,San Diego
92116,52608,78697,2578,35.7,655900,2515,32361,23545,1576,248,2059,9964,3125,509,32.76484,-117.12303,San Diego,San Diego
92118,65725,108992,1205,41.8,1656800,4001,23426,20282,832,196,719,3944,1062,150,32.67466,-117.16915,Coronado,San Diego
92060,61434,,0,61.4,2000001,,457,381,0,0,0,0,76,0,33.35043,-116.86451,Palomar Mountain,San Diego
92075,64968,104201,637,46,1338700,4001,12691,9981,123,39,823,1907,1004,36,32.99735,-117.25875,Solana Beach,San Diego
92083,27966,68551,4518,33.1,443800,2101,39276,27474,1221,253,1974,23674,4802,472,33.19808,-117.24844,Vista,San Diego
92084,31317,77970,5091,34.5,575600,2569,50306,38843,1207,444,1263,24217,4289,142,33.22454,-117.20334,Vista,San Diego
92104,46204,73447,4916,34.3,627800,2525,45601,32266,3248,523,2917,13873,4040,1505,32.74191,-117.12781,San Diego,San Diego
92325,30241,63707,1131,42.1,265300,1489,8647,7555,293,106,36,1721,409,0,34.24554,-117.27506,Crestline,San Bernardino
92333,50885,80000,15,64.6,410000,1944,409,409,0,0,0,0,0,0,34.26951,-116.96277,Fawnskin,San Bernardino
92336,30846,96447,8586,33,434200,2355,98731,40559,10428,568,10463,57320,9181,788,34.13686,-117.46033,Fontana,San Bernardino
92365,24098,55938,442,50.2,103500,1066,2527,1859,93,62,285,384,183,0,34.88843,-116.54129,Newberry Springs,San Bernardino
92389,25765,33173,32,72.1,104200,,212,163,0,34,0,37,11,0,35.82902,-116.24813,Tecopa,Inyo
92398,34622,55572,94,36.7,102500,1907,1643,1426,0,0,136,376,81,0,34.97178,-116.83808,Yermo,San Bernardino
92606,48419,112688,2856,34.6,863900,3122,27410,11167,625,8,12019,2846,2720,151,33.69849,-117.8123,Irvine,Orange
92802,24180,66429,7270,33.1,562300,2281,44013,26284,1203,162,6264,28980,4166,642,33.80831,-117.9237,Anaheim,Orange
92501,27634,71204,2169,33,337200,1657,21967,11419,1178,225,1048,13373,1546,98,33.99496,-117.37367,Riverside,Riverside
92508,36943,121021,2710,35.5,490800,2648,38518,20794,3244,72,5162,12398,3982,410,33.89039,-117.3282,Riverside,Riverside
92518,30555,75741,247,37.3,,,1266,665,42,30,150,325,276,0,33.89602,-117.27705,March Air Reserve Base,Riverside
92705,48289,106058,3970,39,876700,3372,47044,29683,993,304,4010,20714,3106,411,33.755,-117.81488,Santa Ana,Orange
95954,25645,53547,1797,47.5,191200,1431,12221,10635,0,189,73,1319,1205,43,39.94916,-121.54088,Magalia,Butte
95962,42029,,138,40.3,281300,1945,1053,1006,34,0,0,31,0,0,39.32669,-121.26876,Oregon House,Yuba
95969,32409,49681,2737,56.5,269500,1879,19112,17476,84,270,165,1167,816,140,39.72178,-121.63388,Paradise,Butte
95971,31210,58523,647,43.3,263100,1665,5948,5048,274,67,37,540,273,4,39.92895,-120.91608,Quincy,Plumas
95975,25503,68172,382,46.6,418300,2164,1736,1689,0,47,0,36,0,0,39.22436,-121.15367,Rough And Ready,Nevada
95977,28301,62830,111,36.6,386700,2250,1586,1294,26,33,2,90,204,1,39.17967,-121.29007,Smartsville,Yuba
95986,32124,63750,0,65.1,275000,,123,123,0,0,0,0,0,0,39.36149,-120.7652,Washington,Nevada
95002,35104,100000,94,31.8,562500,2493,2251,539,49,38,316,1374,109,0,37.44075,-122.00047,Alviso,Santa Clara
95006,53101,111792,607,46.7,623700,2962,9457,8242,66,82,79,1249,615,101,37.17129,-122.151,Boulder Creek,Santa Cruz
95019,18601,59256,669,31.9,445800,2069,8743,2339,445,0,199,8040,844,0,36.93575,-121.78458,Freedom,Santa Cruz
95119,51131,122944,550,40,908600,3284,10450,5199,351,75,2896,2677,1462,285,37.22756,-121.79077,San Jose,Santa Clara
95127,33460,104518,4533,36.7,751100,2854,63220,19461,941,690,16256,35987,4834,1059,37.37453,-121.78733,San Jose,Santa Clara
95128,53026,100198,3523,37,973600,3431,35986,19922,1866,231,6124,11949,2854,659,37.31579,-121.93647,San Jose,Santa Clara
95130,60573,143125,647,37.9,1314900,3844,14051,6986,523,0,5063,1994,838,172,37.28803,-121.98146,San Jose,Santa Clara
95138,66557,166895,1085,38.6,1071600,4001,20597,6324,916,213,9488,5029,2603,476,37.2462,-121.73287,San Jose,Santa Clara
95210,18767,48614,8509,30.6,245000,1533,41641,11804,5538,90,12441,15714,7512,319,38.03215,-121.29782,Stockton,San Joaquin
95233,44456,114861,25,57,332600,1492,381,381,0,0,0,0,0,0,38.18622,-120.36859,Hathaway Pines,Calaveras
95237,32099,71979,484,42.1,398000,2176,3655,2974,4,0,9,1139,518,0,38.15953,-121.14845,Lockeford,San Joaquin
95255,20277,42083,273,58.3,201000,1418,1591,1288,0,93,28,186,175,0,38.42055,-120.47506,West Point,Calaveras
95257,34942,72014,133,62,281900,,386,353,0,0,0,54,15,0,38.38068,-120.45255,Wilseyville,Calaveras
95306,25278,39353,114,58.3,247600,1915,841,802,0,0,0,77,0,0,37.36015,-120.11581,Catheys Valley,Mariposa
95307,21060,61287,7510,31.2,291000,1599,47130,28299,1462,384,2921,28871,5681,150,37.55582,-120.95385,Ceres,Stanislaus
95316,32932,82275,481,40.3,369100,1789,8090,6603,17,0,276,2981,172,0,37.54613,-120.69212,Denair,Stanislaus
95335,,,0,60.7,,,88,38,0,0,50,0,0,0,38.11894,-120.09239,Long Barn,Tuolumne
95336,29311,70084,4870,37.8,377100,1902,47243,31653,1547,266,3473,19731,4198,325,37.83351,-121.1988,Manteca,San Joaquin
95350,28313,57291,7702,36.2,287500,1665,54044,38965,2272,1010,4371,17956,3110,288,37.67175,-121.00732,Modesto,Stanislaus
95430,,,0,,,,13,13,0,0,0,0,0,0,38.46279,-123.04476,Duncans Mills,Sonoma
95452,63469,92094,118,68.9,903100,2827,740,650,0,0,90,11,0,10,38.42969,-122.5362,Kenwood,Sonoma
95521,27282,42636,6221,29,367900,1876,21193,16238,460,593,813,3222,1726,400,40.84586,-124.04745,Arcata,Humboldt
95528,35252,65096,284,41.4,372300,2041,1745,1592,0,48,3,33,99,0,40.4936,-123.92393,Carlotta,Humboldt
95540,25447,47392,2682,39.1,287700,1517,14316,11462,105,314,56,2820,1049,112,40.56671,-124.12651,Fortuna,Humboldt
95552,22784,19750,289,58.7,275400,2075,699,642,0,11,0,26,14,0,40.34899,-123.42248,Mad River,Trinity
95560,31798,63464,33,37.8,310100,,1534,1467,15,4,4,96,20,0,40.14606,-123.83816,Redway,Humboldt
95606,34840,56413,81,60.2,839300,,303,175,0,2,43,23,83,0,38.75604,-122.19387,Brooks,Yolo
95629,30300,,82,58.6,372400,2122,511,438,0,31,0,24,32,0,38.51277,-120.6875,Fiddletown,Amador
95633,32977,75276,584,40.6,363200,2231,4482,4275,34,50,63,386,52,0,38.84919,-120.82328,Garden Valley,El Dorado
95637,34399,52115,54,50.6,,,140,96,0,0,0,0,44,0,38.85283,-122.2729,Guinda,Yolo
95662,36196,76079,2978,40.9,378900,2042,32363,26489,547,158,793,4463,3511,181,38.68917,-121.21988,Orangevale,Sacramento
95667,37764,74324,3465,50.4,409700,2046,35452,32537,243,283,444,4075,1160,65,38.73407,-120.79216,Placerville,El Dorado
95678,37687,77437,4049,36.7,395600,2066,43078,32999,1069,248,3087,8492,3938,422,38.76536,-121.28847,Roseville,Placer
95682,44358,87974,1869,45.8,507400,2491,29556,26235,200,70,810,4733,1293,116,38.60537,-120.96175,Shingle Springs,El Dorado
95823,20885,50832,17593,31.5,262700,1582,80842,21342,16485,523,17938,25768,8581,817,38.47473,-121.44266,Sacramento,Sacramento
95825,26528,45248,11760,32.1,318200,1761,37268,17746,5014,112,4630,10257,2995,703,38.5901,-121.40644,Sacramento,Sacramento
95826,33567,65967,6172,33.7,329100,1771,39210,22355,4212,247,4511,9043,4497,1004,38.54554,-121.37885,Sacramento,Sacramento
95920,35992,46875,67,36.2,198100,1500,304,247,0,15,9,121,0,0,39.46071,-121.93702,Butte City,Glenn
95925,12377,21786,100,27.8,,,261,164,35,14,0,67,48,0,39.46798,-121.18006,Challenge,Yuba
95674,39167,94722,31,42,432400,2256,910,716,23,4,52,32,72,6,38.95396,-121.48187,Rio Oso,Sutter
95659,36484,54833,101,43.5,400000,2773,748,683,4,0,0,205,38,0,38.84594,-121.57679,Nicolaus,Sutter
95668,32398,75667,34,44.3,498600,1958,588,498,0,5,20,86,34,0,38.82708,-121.49378,Pleasant Grove,Sutter
95669,17780,85758,201,43.7,436900,2056,4899,3015,675,105,67,1540,443,4,38.49522,-120.89157,Plymouth,Amador
95717,27687,49583,40,57.7,284400,2625,150,142,0,5,0,21,3,0,39.14258,-120.84268,Gold Run,Placer
95720,44962,,3,49.9,338900,1688,108,74,0,0,0,3,31,0,38.84536,-120.26021,Kyburz,El Dorado
95828,22684,56190,11568,35.5,285000,1577,59139,16127,5388,400,22952,15973,5721,601,38.48943,-121.39598,Sacramento,Sacramento
95830,60531,116838,72,54.4,625000,2464,670,553,0,16,74,127,8,37,38.49415,-121.27229,Sacramento,Sacramento
95842,23394,54146,6541,33.2,272800,1552,33287,19901,4832,206,2769,7541,3529,101,38.687,-121.34889,Sacramento,Sacramento
95901,24477,55128,6703,32.9,257600,1738,35181,25643,1400,390,3143,10181,3182,107,39.2225,-121.48855,Marysville,Yuba
95919,34061,78625,119,45.7,273500,1225,1306,1150,8,0,0,0,148,0,39.43445,-121.26554,Brownsville,Yuba
95928,32537,56204,8666,32,368000,1912,38655,31873,714,256,1496,6931,1864,238,39.68317,-121.83528,Chico,Butte
95943,38998,71250,138,36.1,368800,2017,731,685,12,0,0,129,25,0,39.57692,-122.0367,Glenn,Glenn
95957,28541,60625,36,40.4,244900,1608,723,606,2,7,2,251,86,0,39.05366,-121.82379,Meridian,Sutter
95973,39183,73817,4032,37,376600,2014,36223,29749,406,196,1521,6864,2131,53,39.88099,-121.8516,Chico,Butte
95630,48684,118006,3725,40.2,558900,2641,79584,53128,3380,273,13392,12487,6731,681,38.66558,-121.141,Folsom,Sacramento
95639,20906,59167,15,45.4,,,309,257,0,0,0,247,52,0,38.39202,-121.49599,Hood,Sacramento
91506,48444,85086,1349,43.9,792900,2979,17864,12214,336,170,2494,4593,1684,132,34.17134,-118.32384,Burbank,Los Angeles
91752,28824,89255,4011,34.1,491900,2516,36087,18226,1800,310,2979,22147,3047,132,33.99575,-117.53399,Mira Loma,Riverside
91754,32642,66218,3709,43.2,655700,2527,33343,5561,245,129,20449,10471,1005,317,34.051,-118.14451,Monterey Park,Los Angeles
91763,21080,63529,7228,32,391100,2009,39557,19438,1706,319,4515,27724,3589,296,34.07208,-117.69828,Montclair,San Bernardino
91765,41633,101161,3222,43.6,695900,2634,46248,11932,1960,96,26911,8003,2288,499,33.98725,-117.81473,Diamond Bar,Los Angeles
91709,39993,104661,5697,38.6,642500,2619,82800,35856,3153,552,30663,22740,6083,375,33.95105,-117.72549,Chino Hills,San Bernardino
91731,18061,48723,5643,34.2,475800,2101,30313,9899,113,996,8485,19821,3144,878,34.07914,-118.04047,El Monte,Los Angeles
91733,18818,57500,9313,35.1,457100,2021,44908,14467,278,477,9920,32794,2908,590,34.0454,-118.05314,South El Monte,Los Angeles
91737,42362,103679,1455,42.6,645300,2786,24064,14575,1772,168,2694,8098,2282,125,34.15523,-117.57808,Rancho Cucamonga,San Bernardino
91741,49092,108750,1496,42.3,737400,2980,26071,18297,287,43,3292,7231,2608,507,34.1647,-117.83197,Glendora,Los Angeles
91745,35308,88702,4668,42.8,622500,2442,55394,19042,681,414,22489,24477,2826,810,33.99926,-117.97225,Hacienda Heights,Los Angeles
91768,19388,62136,5433,29.2,402600,1859,35634,15615,1833,1067,2736,25817,1891,635,34.06358,-117.78941,Pomona,Los Angeles
91780,33874,83029,3569,42.7,720100,2778,34854,7679,164,158,22424,6685,1644,597,34.10152,-118.05584,Temple City,Los Angeles
91792,30558,85040,3585,38.2,525700,2179,29806,6107,2549,178,13226,12136,1575,409,34.02586,-117.89989,West Covina,Los Angeles
91917,20582,,395,30,550700,2653,1048,589,15,0,144,404,51,14,32.6267,-116.71894,Dulzura,San Diego
91931,25458,63455,105,40.2,,,530,530,0,0,0,0,0,0,32.83758,-116.58029,Guatay,San Diego
91325,37424,72041,5510,36.6,692900,2948,34637,17067,2601,69,5612,12296,2384,494,34.23636,-118.51777,Northridge,Los Angeles
91326,53736,120563,1534,45.5,800200,3484,36126,17527,2950,258,11312,5421,2491,75,34.28022,-118.5566,Porter Ranch,Los Angeles
91345,27866,80759,1756,39.3,506900,2380,18825,7910,278,175,1775,13015,972,304,34.26591,-118.45948,Mission Hills,Los Angeles
91356,54473,80872,2982,44,994900,3760,30700,23323,1899,91,1781,4405,2027,574,34.15504,-118.54757,Tarzana,Los Angeles
91402,20160,48933,13442,34.5,446500,2150,70702,18363,2551,426,10609,49797,3066,3330,34.22413,-118.4448,Panorama City,Los Angeles
91436,89570,153304,999,45.9,1423300,4001,16737,14540,240,12,913,1026,694,76,34.15219,-118.49053,Encino,Los Angeles
91501,39272,73622,2016,41.5,853100,3069,19459,14867,472,94,1240,3143,891,86,34.19469,-118.29431,Burbank,Los Angeles
91605,24019,53335,8680,35.4,561500,2470,52345,29636,1468,627,4662,30885,3742,1365,34.20699,-118.40067,North Hollywood,Los Angeles
91723,29859,70428,1930,36.7,549600,2385,17664,10639,718,771,1488,11709,1401,538,34.08495,-117.88652,Covina,Los Angeles
91739,44242,119397,1683,34.6,618600,3006,39355,20349,3913,133,7487,13641,3798,360,34.1622,-117.51558,Rancho Cucamonga,San Bernardino
91740,35923,89655,2201,38.8,555000,2422,26099,15910,648,227,2979,11487,3667,504,34.11884,-117.8534,Glendora,Los Angeles
91744,21570,74100,8862,35.7,445800,1938,83396,30833,1431,1140,11414,65808,4201,1469,34.02914,-117.93735,La Puente,Los Angeles
91746,22049,77740,3147,36.9,460500,1977,29876,10855,562,180,3517,24872,1707,434,34.04397,-117.98785,La Puente,Los Angeles
91750,42670,93166,2681,44.8,606700,2685,34468,23289,1612,175,3519,13041,3671,319,34.14927,-117.76647,La Verne,Los Angeles
91759,45953,97109,7,56,411400,2156,351,324,3,6,0,51,18,0,34.2541,-117.69194,Mt Baldy,Los Angeles
91762,24386,64383,8061,32.6,406600,1979,63819,30364,2991,558,4017,45505,7916,357,34.02764,-117.64308,Ontario,San Bernardino
95476,53538,87374,2404,52.2,737800,2690,37150,28780,465,16,763,9496,2989,170,38.25531,-122.46055,Sonoma,Sonoma
95485,31237,55276,259,48.6,317200,2068,2804,2507,20,144,87,273,21,3,39.20828,-122.9259,Upper Lake,Lake
95524,47408,61792,198,51.8,480400,2137,1764,1623,0,11,5,111,107,0,40.82346,-124.05271,Bayside,Humboldt
95492,44110,118773,1323,42.2,629700,2820,29502,21820,268,786,876,9607,2085,130,38.53052,-122.81254,Windsor,Sonoma
95501,31300,43932,4492,38.2,299100,1667,23948,17163,636,507,1097,3917,2604,245,40.80435,-124.14034,Eureka,Humboldt
95514,21448,60450,0,37,,,109,109,0,0,0,0,0,0,40.29151,-123.67119,Blocksburg,Humboldt
95550,39039,86156,5,28.8,781300,2650,172,156,0,0,0,0,16,0,40.77695,-123.82951,Korbel,Humboldt
95567,40531,84302,197,42.7,255000,1416,1888,1382,0,140,94,182,163,0,41.9498,-124.1118,Smith River,Del Norte
95602,41952,85662,1359,53.8,483300,2326,18588,17336,22,66,285,2238,599,18,38.99039,-121.10991,Auburn,Placer
95603,41460,72571,3147,48.5,458000,2304,29930,26998,177,223,625,3772,1488,49,38.91167,-121.08559,Auburn,Placer
95628,46831,89923,3298,45.2,460400,2204,40922,33276,777,70,2265,5687,3533,277,38.65212,-121.2543,Fair Oaks,Sacramento
95634,32733,68672,423,56.1,290400,1413,3921,3616,9,127,85,578,77,0,38.9123,-120.69443,Georgetown,El Dorado
95646,35079,124167,17,41,364700,1971,156,76,10,0,0,87,65,3,38.63828,-120.01813,Kirkwood,Alpine
95650,62115,103669,1040,47.1,662400,2683,15172,13152,49,25,311,1522,1325,19,38.81339,-121.16831,Loomis,Placer
